name,latitude,longitude,都道府県,市区町村,住所,ポケモン,画像URL,詳細URL,manhole_no
鹿児島県/指宿市（イーブイ）,31.237194,130.642861,鹿児島県,指宿市,鹿児島県指宿市湊1丁目1-1,イーブイ,https://local.pokemon.jp/img/p/manhole/1a0d76db2fb9b2cd5857ad3ee233e054_l.png,https://local.pokemon.jp/manhole/desc/1/,1
鹿児島県/指宿市（シャワーズ）,31.228,130.653028,鹿児島県,指宿市,鹿児島県指宿市湯の浜5丁目26-29,シャワーズ,https://local.pokemon.jp/img/p/manhole/79b15b766a24880ed19bda2ec4863ab2_l.png,https://local.pokemon.jp/manhole/desc/2/,2
鹿児島県/指宿市（サンダース）,31.255278,130.647639,鹿児島県,指宿市,鹿児島県指宿市東方9300−1,サンダース,https://local.pokemon.jp/img/p/manhole/5c4e9fb2f499dee2fd8206c9a0926294_l.png,https://local.pokemon.jp/manhole/desc/3/,3
鹿児島県/指宿市（ブースター）,31.229417,130.651972,鹿児島県,指宿市,鹿児島県指宿市湯の浜5丁目25-18,ブースター,https://local.pokemon.jp/img/p/manhole/3b15f5b988170e1ac987781317e3e6c4_l.png,https://local.pokemon.jp/manhole/desc/4/,4
鹿児島県/指宿市（エーフィ）,31.238278,130.645,鹿児島県,指宿市,鹿児島県指宿市湊2丁目5-33,エーフィ,https://local.pokemon.jp/img/p/manhole/80a6b07026c38a97c89436f59e3c5cc2_l.png,https://local.pokemon.jp/manhole/desc/5/,5
鹿児島県/指宿市（ブラッキー）,31.236833,130.642188,鹿児島県,指宿市,鹿児島県指宿市十二町指宿駅,ブラッキー,https://local.pokemon.jp/img/p/manhole/2662aede3a093feb445970ca2e077f85_l.png,https://local.pokemon.jp/manhole/desc/6/,6
鹿児島県/指宿市（リーフィア）,31.263889,130.662917,鹿児島県,指宿市,鹿児島県指宿市東方11915-5,リーフィア,https://local.pokemon.jp/img/p/manhole/079877ac0df6af8da9edc55ca9a06ae8_l.png,https://local.pokemon.jp/manhole/desc/7/,7
鹿児島県/指宿市（グレイシア）,31.231056,130.644611,鹿児島県,指宿市,鹿児島県指宿市十二町2290,グレイシア,https://local.pokemon.jp/img/p/manhole/580f382c51079d1d67edbb02d23462f4_l.png,https://local.pokemon.jp/manhole/desc/8/,8
鹿児島県/指宿市（ニンフィア）,31.235444,130.641389,鹿児島県,指宿市,鹿児島県指宿市十二町2190,ニンフィア,https://local.pokemon.jp/img/p/manhole/5953fdc915091e1bfb6a059b8de5a086_l.png,https://local.pokemon.jp/manhole/desc/9/,9
岩手県/洋野町（カブト）,40.406101,141.719531,岩手県,洋野町,岩手県洋野町種市22-133-11,カブト,https://local.pokemon.jp/img/p/manhole/03c8da68d0400d4eaf0d9bf03d274f98_l.png,https://local.pokemon.jp/manhole/desc/10/,10
岩手県/久慈市（プテラ）,40.189742,141.765832,岩手県,久慈市,岩手県久慈市中町2-5-6,プテラ,https://local.pokemon.jp/img/p/manhole/ce6927c9ff939ee9cb4936e6480b8333_l.png,https://local.pokemon.jp/manhole/desc/11/,11
岩手県/野田村（イワーク）,40.082726,141.828678,岩手県,野田村,岩手県野田村大字野田第5地割,イワーク,https://local.pokemon.jp/img/p/manhole/b30c30e0cdf7b450379ca2f43faa3aac_l.png,https://local.pokemon.jp/manhole/desc/12/,12
岩手県/普代村（タテトプス）,40.002821,141.885736,岩手県,普代村,岩手県普代村9-5-3,タテトプス,https://local.pokemon.jp/img/p/manhole/20fa066c221649e42e0aaf974678c05c_l.png,https://local.pokemon.jp/manhole/desc/13/,13
岩手県/岩泉町（チゴラス）,39.86044,141.796532,岩手県,岩泉町,岩手県岩泉町岩泉字神成1-1,チゴラス,https://local.pokemon.jp/img/p/manhole/fd8ca30f4138a318860f226d8c6c99fc_l.png,https://local.pokemon.jp/manhole/desc/14/,14
岩手県/田野畑村（ノズパス）,39.916682,141.938688,岩手県,田野畑村,岩手県田野畑村松前沢1-38,ノズパス,https://local.pokemon.jp/img/p/manhole/9a02cf6fca246847485b2f0e17e2088a_l.png,https://local.pokemon.jp/manhole/desc/15/,15
岩手県/宮古市（イシツブテ）,39.639471,141.969701,岩手県,宮古市,岩手県宮古市臨港通1-20,イシツブテ,https://local.pokemon.jp/img/p/manhole/3de728b1129d289ee8a8cfdc453d1beb_l.png,https://local.pokemon.jp/manhole/desc/16/,16
岩手県/山田町（オムナイト）,39.464186,141.951043,岩手県,山田町,岩手県山田町川向町51-15,オムナイト,https://local.pokemon.jp/img/p/manhole/54a462f0357b55fb5dfcac3067901572_l.png,https://local.pokemon.jp/manhole/desc/17/,17
岩手県/大槌町（ツボツボ）,39.357255,141.90316,岩手県,大槌町,岩手県大槌町本町1-1,ツボツボ,https://local.pokemon.jp/img/p/manhole/1500f5e64d9158b2504bff2a8b9874da_l.png,https://local.pokemon.jp/manhole/desc/18/,18
岩手県/釜石市（ココドラ）,39.326865,141.887862,岩手県,釜石市,岩手県釜石市鵜住居町第16地割72-1,ココドラ,https://local.pokemon.jp/img/p/manhole/ef0d3f35693fea34981a2a6c5e14104f_l.png,https://local.pokemon.jp/manhole/desc/19/,19
岩手県/大船渡市（サイホーン）,39.085906,141.710256,岩手県,大船渡市,岩手県大船渡市盛町字町13-1,サイホーン,https://local.pokemon.jp/img/p/manhole/f7c29ccbcee1c86abe67c6c5df162231_l.png,https://local.pokemon.jp/manhole/desc/20/,20
岩手県/陸前高田市（イワンコ）,39.01675,141.628694,岩手県,陸前高田市,岩手県陸前高田市高田町字馬場前89-1,イワンコ,https://local.pokemon.jp/img/p/manhole/b48f36c2ea4948e57d737a055d5fe47d_l.png,https://local.pokemon.jp/manhole/desc/21/,21
岩手県/住田町（ヨーギラス）,39.242903,141.68432,岩手県,住田町,岩手県住田町上有住字土倉298-81,ヨーギラス,https://local.pokemon.jp/img/p/manhole/83d5c100e0ee6372bd16490dbc67fa5d_l.png,https://local.pokemon.jp/manhole/desc/22/,22
神奈川県/横浜市（ピカチュウ）,35.451167,139.631501,神奈川県,横浜市,神奈川県横浜市中区桜木町1-1,ピカチュウ,https://local.pokemon.jp/img/p/manhole/dd60987af1dda49a37486a2cbcb4d407_l.png,https://local.pokemon.jp/manhole/desc/23/,23
香川県/高松市（ヤドン）,34.338888,134.049052,香川県,高松市,香川県高松市南新町8-30地先,ヤドン,https://local.pokemon.jp/img/p/manhole/3f8606c250a83239f508571b1484d584_l.png,https://local.pokemon.jp/manhole/desc/28/,28
香川県/丸亀市（ヤドン ）,34.292014,133.793951,香川県,丸亀市,香川県丸亀市浜町109-4,ヤドン ,https://local.pokemon.jp/img/p/manhole/80456987ca2775b7af3dffce1efbf964_l.png,https://local.pokemon.jp/manhole/desc/29/,29
香川県/坂出市（ヤドン）,34.312992,133.856292,香川県,坂出市,香川県坂出市駒止町1丁目4,ヤドン,https://local.pokemon.jp/img/p/manhole/c76924a522f5f4c6be3f7495f67175a3_l.png,https://local.pokemon.jp/manhole/desc/30/,30
香川県/善通寺市（ヤドン・ヤドラン）,34.22531,133.7773,香川県,善通寺市,香川県善通寺市善通寺町二丁目2,ヤドン・ヤドラン,https://local.pokemon.jp/img/p/manhole/c119928b9d5eaad8001359861af7ccad_l.png,https://local.pokemon.jp/manhole/desc/31/,31
香川県/観音寺市（ヤドン・ヤドキング）,34.125275,133.655211,香川県,観音寺市,香川県観音寺市観音寺町甲1234-4,ヤドン・ヤドキング,https://local.pokemon.jp/img/p/manhole/30dbde7fe8d7f8d0cae358eecebfe44b_l.png,https://local.pokemon.jp/manhole/desc/32/,32
香川県/さぬき市（ヤドン・ピッピ）,34.321305,134.173241,香川県,さぬき市,香川県さぬき市志度670-10,ヤドン・ピッピ,https://local.pokemon.jp/img/p/manhole/2f6edaf36ce1857f7f8942cf0bac2b2c_l.png,https://local.pokemon.jp/manhole/desc/33/,33
香川県/東かがわ市（ヤドン）,34.251174,134.333457,香川県,東かがわ市,香川県東かがわ市三本松1172-1,ヤドン,https://local.pokemon.jp/img/p/manhole/55cd911fc9c25e0e8012891daa24946c_l.png,https://local.pokemon.jp/manhole/desc/34/,34
香川県/三豊市（ヤドン・シェルダー）,34.2687992,133.6322219,香川県,三豊市,香川県三豊市詫間町粟島1541地先,ヤドン・シェルダー,https://local.pokemon.jp/img/p/manhole/b28655a215e13414ed57362a65800eef_l.png,https://local.pokemon.jp/manhole/desc/35/,35
香川県/土庄町（ヤドン・メタモン）,34.482694,134.187512,香川県,土庄町,香川県土庄町甲222-1,ヤドン・メタモン,https://local.pokemon.jp/img/p/manhole/4ce0a7a8695de3b57c977499c004ae68_l.png,https://local.pokemon.jp/manhole/desc/36/,36
香川県/小豆島町（ヤドン）,34.4708542,134.2358695,香川県,小豆島町,香川県小豆島町室生2084-1,ヤドン,https://local.pokemon.jp/img/p/manhole/e898687780632f41f88293185dc187f9_l.png,https://local.pokemon.jp/manhole/desc/37/,37
香川県/三木町（ヤドン）,34.268586,134.134567,香川県,三木町,香川県三木町大字氷上310,ヤドン,https://local.pokemon.jp/img/p/manhole/5b76f33d2939d085b7b8877e4843b710_l.png,https://local.pokemon.jp/manhole/desc/38/,38
香川県/直島町（ヤドン・コイキング）,34.455827,133.975492,香川県,直島町,香川県直島町2249番地55,ヤドン・コイキング,https://local.pokemon.jp/img/p/manhole/a110919f47d4cf2b904ebc498d449df2_l.png,https://local.pokemon.jp/manhole/desc/39/,39
香川県/綾川町（ヤドン）,34.250399,133.917073,香川県,綾川町,香川県綾川町滝宮1589-2,ヤドン,https://local.pokemon.jp/img/p/manhole/97364ac57cfec00bae3532e5b86993e1_l.png,https://local.pokemon.jp/manhole/desc/40/,40
香川県/琴平町（ヤドン）,34.187735,133.819896,香川県,琴平町,香川県琴平町723-2,ヤドン,https://local.pokemon.jp/img/p/manhole/a657921a86223c0d151c52658fad232b_l.png,https://local.pokemon.jp/manhole/desc/41/,41
香川県/多度津町（ヤドン）,34.272282,133.757247,香川県,多度津町,香川県多度津町栄町3-3,ヤドン,https://local.pokemon.jp/img/p/manhole/2eeafabec505047777390acd55805848_l.png,https://local.pokemon.jp/manhole/desc/42/,42
香川県/まんのう町（ヤドン）,34.173339,133.871387,香川県,まんのう町,香川県まんのう町吉野4314-1,ヤドン,https://local.pokemon.jp/img/p/manhole/f7183a39726aa627e14ad95fbeaf881f_l.png,https://local.pokemon.jp/manhole/desc/43/,43
宮城県/気仙沼市（ラプラス・イシツブテ）,38.905694,141.574667,宮城県,気仙沼市,宮城県気仙沼市南町海岸1-14,ラプラス・イシツブテ,https://local.pokemon.jp/img/p/manhole/196cb20d603ee6eae87932a61344e7e3_l.png,https://local.pokemon.jp/manhole/desc/44/,44
宮城県/南三陸町（ラプラス・オクタン）,38.717061,141.52115,宮城県,南三陸町,宮城県南三陸町歌津字伊里前96-1,ラプラス・オクタン,https://local.pokemon.jp/img/p/manhole/21dc0ec65a1eb468c86d336ad90ea120_l.png,https://local.pokemon.jp/manhole/desc/45/,45
宮城県/女川町（ラプラス・キャモメ）,38.445695,141.44623,宮城県,女川町,宮城県女川町女川2-65,ラプラス・キャモメ,https://local.pokemon.jp/img/p/manhole/bba07094c6513abf7611f18f842b4c11_l.png,https://local.pokemon.jp/manhole/desc/46/,46
宮城県/石巻市（ラプラス・ニャース・ニャビー・エネコ・ニャルマー）,38.433844,141.303041,宮城県,石巻市,宮城県石巻市穀町14番1号,ラプラス・ニャース・ニャビー・エネコ・ニャルマー,https://local.pokemon.jp/img/p/manhole/a6ba2f448a32de55a112c963c72589aa_l.png,https://local.pokemon.jp/manhole/desc/47/,47
宮城県/東松島市（ラプラス・ラティオス）,38.379414,141.15671,宮城県,東松島市,宮城県東松島市野蒜ケ丘一丁目15-1,ラプラス・ラティオス,https://local.pokemon.jp/img/p/manhole/c90a0f605f37f87cfefb496c80e8a0dc_l.png,https://local.pokemon.jp/manhole/desc/48/,48
宮城県/松島町（ラプラス）,38.368987,141.061207,宮城県,松島町,宮城県松島町松島字浪打浜地内,ラプラス,https://local.pokemon.jp/img/p/manhole/21ee5b603bbc503949a5160aac6211c9_l.png,https://local.pokemon.jp/manhole/desc/49/,49
宮城県/塩竈市（ラプラス・プラスル）,38.318226,141.023075,宮城県,塩竈市,宮城県塩竈市海岸通200-15,ラプラス・プラスル,https://local.pokemon.jp/img/p/manhole/879f9a0774db8f5a92918b55779f41de_l.png,https://local.pokemon.jp/manhole/desc/50/,50
宮城県/利府町（ラプラス・マイナン）,38.329512,140.975248,宮城県,利府町,宮城県利府町利府字新並松4,ラプラス・マイナン,https://local.pokemon.jp/img/p/manhole/c696ccb7c089d73174b41ab9fca770c8_l.png,https://local.pokemon.jp/manhole/desc/51/,51
宮城県/七ヶ浜町（ラプラス・メタモン・ヒトデマン）,38.304315,141.083342,宮城県,七ヶ浜町,宮城県七ヶ浜町花渕浜字館下184,ラプラス・メタモン・ヒトデマン,https://local.pokemon.jp/img/p/manhole/75e862975740feba88601a636fc95395_l.png,https://local.pokemon.jp/manhole/desc/52/,52
宮城県/多賀城市（ラプラス・タッツー）,38.291943,141.007158,宮城県,多賀城市,宮城県多賀城市中央2丁目7番地,ラプラス・タッツー,https://local.pokemon.jp/img/p/manhole/cf7ba94b9548c4c34a1904f0a45ffd48_l.png,https://local.pokemon.jp/manhole/desc/53/,53
宮城県/仙台市（ラプラス・ジラーチ）,38.258587,140.872666,宮城県,仙台市,宮城県仙台市青葉区一番町二丁目6-5,ラプラス・ジラーチ,https://local.pokemon.jp/img/p/manhole/6e116f60e1990858c1709d0ad7168ed0_l.png,https://local.pokemon.jp/manhole/desc/54/,54
宮城県/名取市（ラプラス）,38.17213,140.954044,宮城県,名取市,宮城県名取市閖上東二丁目13‐2,ラプラス,https://local.pokemon.jp/img/p/manhole/b66498501b206eb2ec6a710f114c44bd_l.png,https://local.pokemon.jp/manhole/desc/55/,55
宮城県/岩沼市（ラプラス・トゲピー）,38.105296,140.866325,宮城県,岩沼市,宮城県岩沼市中央1丁目2-13,ラプラス・トゲピー,https://local.pokemon.jp/img/p/manhole/122c918889a88df0101103652da66ffc_l.png,https://local.pokemon.jp/manhole/desc/56/,56
宮城県/亘理町（ラプラス・チルット・ムックル・スバメ・マメパト）,38.04217,140.915724,宮城県,亘理町,宮城県亘理町荒浜字隈崎9-2,ラプラス・チルット・ムックル・スバメ・マメパト,https://local.pokemon.jp/img/p/manhole/31b568509d0a74bdd6d418b9107da7ea_l.png,https://local.pokemon.jp/manhole/desc/57/,57
宮城県/山元町（ラプラス・ラッキー）,37.923988,140.900996,宮城県,山元町,宮城県山元町坂元字町東31-10,ラプラス・ラッキー,https://local.pokemon.jp/img/p/manhole/da648e1b955aa58ff9d29764c3b14098_l.png,https://local.pokemon.jp/manhole/desc/58/,58
北海道/石狩市（ロコン・ナエトル）,43.585848,141.423898,北海道,石狩市,北海道石狩市浜益区実田254-4,ロコン・ナエトル,https://local.pokemon.jp/img/p/manhole/9a5bcd8fc9acb25f4bd0f7ad5ed029ee_l.png,https://local.pokemon.jp/manhole/desc/59/,59
北海道/恵庭市（ロコン）,42.897132,141.585789,北海道,恵庭市,北海道恵庭市南島松817-18,ロコン,https://local.pokemon.jp/img/p/manhole/0ade724150fd22b8e25d72508fdfbc91_l.png,https://local.pokemon.jp/manhole/desc/60/,60
北海道/洞爺湖町（ロコン・ウリムー）,42.566111,140.819072,北海道,洞爺湖町,北海道洞爺湖町洞爺湖温泉224,ロコン・ウリムー,https://local.pokemon.jp/img/p/manhole/c9b1ca1743f22f22ec0cc61d901b5dad_l.png,https://local.pokemon.jp/manhole/desc/61/,61
北海道/森町（マーイーカ）,42.108855,140.572941,北海道,森町,北海道森町本町6-22,マーイーカ,https://local.pokemon.jp/img/p/manhole/7304ef666e025271c5f04399faf2bc07_l.png,https://local.pokemon.jp/manhole/desc/62/,62
北海道/上ノ国町（ロコン・ヒコザル）,41.808398,140.095409,北海道,上ノ国町,北海道上ノ国町字原歌3番地,ロコン・ヒコザル,https://local.pokemon.jp/img/p/manhole/835ef4993bfa0a192e0f0fe4a51c13a3_l.png,https://local.pokemon.jp/manhole/desc/63/,63
北海道/士別市（ロコン・メリープ）,44.175974,142.392417,北海道,士別市,北海道士別市大通東5丁目,ロコン・メリープ,https://local.pokemon.jp/img/p/manhole/c5ca9b484bde47acd0cd18e4c115eb74_l.png,https://local.pokemon.jp/manhole/desc/64/,64
北海道/比布町（ポッチャマ）,43.875033,142.471699,北海道,比布町,北海道比布町西町2丁目6番1号,ポッチャマ,https://local.pokemon.jp/img/p/manhole/f5e2dff8844d9a78c1baca3405a0737b_l.png,https://local.pokemon.jp/manhole/desc/65/,65
北海道/天塩町（ロコン）,44.88452,141.74797,北海道,天塩町,北海道天塩町新開通4丁目7227番地2,ロコン,https://local.pokemon.jp/img/p/manhole/ad2274e40919a0301047f6e809a040fd_l.png,https://local.pokemon.jp/manhole/desc/66/,66
北海道/稚内市,45.417236,141.677095,北海道,稚内市,北海道稚内市中央3-5,,https://local.pokemon.jp/img/p/manhole/92f6a149a9614bf12a606d2c691f4def_l.png,https://local.pokemon.jp/manhole/desc/67/,67
北海道/豊富町（ミルタンク）,45.103245,141.778643,北海道,豊富町,北海道豊富町東1条6丁目,ミルタンク,https://local.pokemon.jp/img/p/manhole/d4e4eb2b9d3e88657aec298b6778c90d_l.png,https://local.pokemon.jp/manhole/desc/68/,68
北海道/紋別市（タマザラシ）,44.334641,143.372211,北海道,紋別市,北海道紋別市海洋公園,タマザラシ,https://local.pokemon.jp/img/p/manhole/708b89a16446446c4f4b67b89afb40b2_l.png,https://local.pokemon.jp/manhole/desc/69/,69
北海道/遠軽町（ユキメノコ）,44.021878,143.497131,北海道,遠軽町,北海道遠軽町野上150番地,ユキメノコ,https://local.pokemon.jp/img/p/manhole/ea59f21d2187fb600591f5b4843bf63d_l.png,https://local.pokemon.jp/manhole/desc/70/,70
北海道/大空町（ロコン・ムクホーク）,43.915555,144.17137,北海道,大空町,北海道大空町女満別本通1丁目,ロコン・ムクホーク,https://local.pokemon.jp/img/p/manhole/fdf28d6a85b570757b1a6a6045c05ace_l.png,https://local.pokemon.jp/manhole/desc/71/,71
北海道/新得町（ヒメグマ）,43.082684,142.832927,北海道,新得町,北海道新得町本通北1丁目,ヒメグマ,https://local.pokemon.jp/img/p/manhole/0ae31f4e9e07a44469e899c4f8a7c0d1_l.png,https://local.pokemon.jp/manhole/desc/72/,72
北海道/足寄町（ユクシー・エムリット・アグノム）,43.244229,143.546753,北海道,足寄町,北海道足寄町北1条1丁目1,ユクシー・エムリット・アグノム,https://local.pokemon.jp/img/p/manhole/18709c0795ab510b4759d0a7d51bd645_l.png,https://local.pokemon.jp/manhole/desc/73/,73
鳥取県/鳥取市（サンド・ミミロル）,35.539668,134.237266,鳥取県,鳥取市,鳥取県鳥取市福部町湯山2083-17地先,サンド・ミミロル,https://local.pokemon.jp/img/p/manhole/ff3da633c56590b1692d2cc729807dd8_l.png,https://local.pokemon.jp/manhole/desc/74/,74
鳥取県/米子市（サンド・カモネギ・スワンナ）,35.456258,133.361525,鳥取県,米子市,鳥取県米子市皆生温泉3丁目1番1号,サンド・カモネギ・スワンナ,https://local.pokemon.jp/img/p/manhole/d41137bea205741d5a7f4cb7e5646494_l.png,https://local.pokemon.jp/manhole/desc/75/,75
鳥取県/倉吉市（サンド）,35.454272,133.850116,鳥取県,倉吉市,鳥取県倉吉市上井195,サンド,https://local.pokemon.jp/img/p/manhole/5eab25e1ec94bbda4e016964c1e4c0c2_l.png,https://local.pokemon.jp/manhole/desc/76/,76
鳥取県/境港市（サンド・クラブ）,35.521481,133.258356,鳥取県,境港市,鳥取県境港市竹内団地252-2,サンド・クラブ,https://local.pokemon.jp/img/p/manhole/f6da3dcbdb1a5e3805efeae1aed62a31_l.png,https://local.pokemon.jp/manhole/desc/77/,77
鳥取県/岩美町（サンド・ネイティオ）,35.590938,134.321556,鳥取県,岩美町,鳥取県岩美町浦富2475-17,サンド・ネイティオ,https://local.pokemon.jp/img/p/manhole/abf9db7af4414278a820045649dd91b9_l.png,https://local.pokemon.jp/manhole/desc/78/,78
鳥取県/若桜町（ユキカブリ）,35.343951,134.400345,鳥取県,若桜町,鳥取県若桜町若桜983-2,ユキカブリ,https://local.pokemon.jp/img/p/manhole/89266fc70148e3988d2505b8bebec5e7_l.png,https://local.pokemon.jp/manhole/desc/79/,79
鳥取県/三朝町（サンド・ケロマツ）,35.409324,133.894397,鳥取県,三朝町,鳥取県三朝町三朝783,サンド・ケロマツ,https://local.pokemon.jp/img/p/manhole/fa7745d9d2cf27532ece0df7ae94cdef_l.png,https://local.pokemon.jp/manhole/desc/80/,80
鳥取県/湯梨浜町（サンド・シェルダー）,35.478166,133.88401,鳥取県,湯梨浜町,鳥取県湯梨浜町はわい温泉3-13,サンド・シェルダー,https://local.pokemon.jp/img/p/manhole/97b31d2afb1854865151081ffff89c13_l.png,https://local.pokemon.jp/manhole/desc/81/,81
鳥取県/琴浦町（サンド）,35.506942,133.661612,鳥取県,琴浦町,鳥取県琴浦町別所270-4,サンド,https://local.pokemon.jp/img/p/manhole/b895c47d2aa420b0ee4f6de752d0b52b_l.png,https://local.pokemon.jp/manhole/desc/82/,82
鳥取県/大山町（ヒトモシ）,35.504584,133.502093,鳥取県,大山町,鳥取県大山町名和951-6,ヒトモシ,https://local.pokemon.jp/img/p/manhole/9dbcf5bd5c6c3fe0923fbe26eb38b5fd_l.png,https://local.pokemon.jp/manhole/desc/83/,83
鳥取県/南部町（サンド・ナックラー）,35.347474,133.423398,鳥取県,南部町,鳥取県南部町鶴田110,サンド・ナックラー,https://local.pokemon.jp/img/p/manhole/d3e1aa315a234beed33b5fdf0e57273f_l.png,https://local.pokemon.jp/manhole/desc/84/,84
鳥取県/伯耆町（サンド・オニゴーリ）,35.383395,133.458512,鳥取県,伯耆町,鳥取県伯耆町大原997-12,サンド・オニゴーリ,https://local.pokemon.jp/img/p/manhole/c2c30a5636c8110a39aa6c37a46833a9_l.png,https://local.pokemon.jp/manhole/desc/85/,85
鳥取県/日南町（サンド・バルビート・イルミーゼ）,35.170524,133.31094,鳥取県,日南町,鳥取県日南町生山354番地2,サンド・バルビート・イルミーゼ,https://local.pokemon.jp/img/p/manhole/93d997a517ea711ef84cf02652df9b5d_l.png,https://local.pokemon.jp/manhole/desc/86/,86
鳥取県/日野町（サンド・チルット）,35.24192,133.441049,鳥取県,日野町,鳥取県日野町根雨170番地1,サンド・チルット,https://local.pokemon.jp/img/p/manhole/699a59ecb60c1f784eb89c546316a66c_l.png,https://local.pokemon.jp/manhole/desc/87/,87
福島県/新地町（ラッキー・オドシシ）,37.878748,140.925027,福島県,新地町,福島県新地町駅前1丁目3番地,ラッキー・オドシシ,https://local.pokemon.jp/img/p/manhole/3551920549897ca17bd2d417b3461b56_l.png,https://local.pokemon.jp/manhole/desc/88/,88
福島県/相馬市（ラッキー・ポニータ）,37.827708,140.963244,福島県,相馬市,福島県相馬市尾浜字寺前111-1,ラッキー・ポニータ,https://local.pokemon.jp/img/p/manhole/4b56f3842cbe9066c7d01f0c9df96c92_l.png,https://local.pokemon.jp/manhole/desc/89/,89
福島県/南相馬市（ラッキー・ギャロップ）,37.63577,140.983041,福島県,南相馬市,福島県南相馬市原町区高見町2-30-1,ラッキー・ギャロップ,https://local.pokemon.jp/img/p/manhole/438cf3fd7fda58f2fb64fe9a8cae6d5f_l.png,https://local.pokemon.jp/manhole/desc/90/,90
福島県/浪江町（ラッキー）,37.496395,141.000919,福島県,浪江町,福島県浪江町大字幾世橋字知命寺60（道の駅なみえ敷地内）,ラッキー,https://local.pokemon.jp/img/p/manhole/e0030b2398b3c23c69eeb288202d02bb_l.png,https://local.pokemon.jp/manhole/desc/91/,91
福島県/楢葉町（ラッキー・ラビフット）,37.2501442,140.9975789,福島県,楢葉町,福島県楢葉町大字山田岡字大堤入22-1,ラッキー・ラビフット,https://local.pokemon.jp/img/p/manhole/912960b2605434d5780a92ab51dd92b9_l.png,https://local.pokemon.jp/manhole/desc/92/,92
福島県/いわき市（ラッキー・キレイハナ）,37.1073084,140.9932743,福島県,いわき市,福島県いわき市四倉町字5-218-1,ラッキー・キレイハナ,https://local.pokemon.jp/img/p/manhole/8f4823eaabb4acedd31afc1be79c0bd8_l.png,https://local.pokemon.jp/manhole/desc/93/,93
福島県/川俣町（ラッキー・カラサリス・マユルド）,37.667671,140.57675,福島県,川俣町,福島県川俣町大字鶴沢字東13-1,ラッキー・カラサリス・マユルド,https://local.pokemon.jp/img/p/manhole/b65e0102732f5ec6a2473bd0372bb6c3_l.png,https://local.pokemon.jp/manhole/desc/94/,94
福島県/田村市（ラッキー・ヘラクロス）,37.344423,140.674289,福島県,田村市,福島県田村市滝根町菅谷字東釜山1,ラッキー・ヘラクロス,https://local.pokemon.jp/img/p/manhole/482de2cc901ee6970a9196ef63fcc05b_l.png,https://local.pokemon.jp/manhole/desc/95/,95
福島県/川内村（ラッキー・ヨワシ・サシカマス）,37.329458,140.82162,福島県,川内村,福島県川内村大字下川内字宮ノ下25-1,ラッキー・ヨワシ・サシカマス,https://local.pokemon.jp/img/p/manhole/c846e8317054bcfad601d9de4ed1bddb_l.png,https://local.pokemon.jp/manhole/desc/96/,96
香川県/宇多津町（ヌオー）,34.3134259,133.8075257,香川県,宇多津町,香川県宇多津町浜一番丁4番地,ヌオー,https://local.pokemon.jp/img/p/manhole/46149907aafef8ebbb532d3adedfc0a6_l.png,https://local.pokemon.jp/manhole/desc/97/,97
東京都/町田市（フシギダネ）,35.548108,139.45034,東京都,町田市,東京都町田市原町田5-16,フシギダネ,https://local.pokemon.jp/img/p/manhole/4c77c6c7e731ed37ef071ab402d5c1bd_l.png,https://local.pokemon.jp/manhole/desc/98/,98
東京都/町田市（ヒトカゲ）,35.548171,139.4513,東京都,町田市,東京都町田市原町田5-16,ヒトカゲ,https://local.pokemon.jp/img/p/manhole/5a62f4b93b6a63de11a8f9ff794e48ca_l.png,https://local.pokemon.jp/manhole/desc/99/,99
東京都/町田市（ゼニガメ）,35.545302,139.45501,東京都,町田市,東京都町田市原町田5-16,ゼニガメ,https://local.pokemon.jp/img/p/manhole/6f89f0fea8421c663d939f07d9d3e170_l.png,https://local.pokemon.jp/manhole/desc/100/,100
東京都/町田市（ナゾノクサ・ビードル・キャタピー）,35.546111,139.45436,東京都,町田市,東京都町田市原町田5-16,ナゾノクサ・ビードル・キャタピー,https://local.pokemon.jp/img/p/manhole/f440e59f4dc8e8eb3d6dbc063c121101_l.png,https://local.pokemon.jp/manhole/desc/101/,101
東京都/町田市（ポッポ・コラッタ）,35.545645,139.45488,東京都,町田市,東京都町田市原町田5-16,ポッポ・コラッタ,https://local.pokemon.jp/img/p/manhole/0a991953b4543cb86f11bc3581aae7d1_l.png,https://local.pokemon.jp/manhole/desc/102/,102
東京都/町田市（ニョロモ）,35.546713,139.45398,東京都,町田市,東京都町田市原町田5-16,ニョロモ,https://local.pokemon.jp/img/p/manhole/5ad8fe31b6a39f7b0d1dcbc4d366b54b_l.png,https://local.pokemon.jp/manhole/desc/103/,103
滋賀県/大津市（ギャラドス）,35.0102,135.8699,滋賀県,大津市,滋賀県大津市島の関14,ギャラドス,https://local.pokemon.jp/img/p/manhole/e70ea99b7ee9eedea0e19e6cebe5d895_l.png,https://local.pokemon.jp/manhole/desc/104/,104
滋賀県/大津市（ギャラドス）,34.9981,135.8946,滋賀県,大津市,滋賀県大津市由美浜,ギャラドス,https://local.pokemon.jp/img/p/manhole/d457b0b0d22eb88c9ef87d755c435ee0_l.png,https://local.pokemon.jp/manhole/desc/105/,105
鳥取県/智頭町（サンド・サンドパン・ウソッキー）,35.265428,134.226103,鳥取県,智頭町,鳥取県智頭町大字智頭2067-1,サンド・サンドパン・ウソッキー,https://local.pokemon.jp/img/p/manhole/9124edb433debfc805f8e3dcf81142ef_l.png,https://local.pokemon.jp/manhole/desc/106/,106
鳥取県/八頭町,35.366456,134.339426,鳥取県,八頭町,鳥取県八頭町徳丸625,,https://local.pokemon.jp/img/p/manhole/e4cc762f5c45d2e3b1c89fe016cad306_l.png,https://local.pokemon.jp/manhole/desc/107/,107
鳥取県/北栄町（サンド）,35.49924,133.81794,鳥取県,北栄町,鳥取県北栄町田井488-1,サンド,https://local.pokemon.jp/img/p/manhole/15da1d7d96977b140743c9ceb0c19a56_l.png,https://local.pokemon.jp/manhole/desc/108/,108
鳥取県/日吉津村（サンド・メタモン）,35.441126,133.379578,鳥取県,日吉津村,鳥取県日吉津村大字日吉津930番地,サンド・メタモン,https://local.pokemon.jp/img/p/manhole/3af8acc5e98898f553ef0a9d3472dd75_l.png,https://local.pokemon.jp/manhole/desc/109/,109
鳥取県/江府町（サンド）,35.295841,133.474089,鳥取県,江府町,鳥取県江府町佐川908-3,サンド,https://local.pokemon.jp/img/p/manhole/14cce541fd36605c5e7663e88d87aaa7_l.png,https://local.pokemon.jp/manhole/desc/110/,110
宮崎県/宮崎市（ナッシー・ポワルン）,31.807505,131.457839,宮崎県,宮崎市,宮崎県宮崎市大字加江田7275-1,ナッシー・ポワルン,https://local.pokemon.jp/img/p/manhole/4df805be8a64d2c988d992788be19a9b_l.png,https://local.pokemon.jp/manhole/desc/111/,111
宮崎県/都城市（メテノ）,31.725213,131.0661894,宮崎県,都城市,宮崎県都城市天神町3,メテノ,https://local.pokemon.jp/img/p/manhole/669e4e9f0164e147c365f0fa159d5186_l.png,https://local.pokemon.jp/manhole/desc/112/,112
宮崎県/延岡市（ナッシー）,32.684711,131.801103,宮崎県,延岡市,宮崎県延岡市北浦町古江3337-1,ナッシー,https://local.pokemon.jp/img/p/manhole/3a5e9189da60b8c54d2ccdbd184dc9dd_l.png,https://local.pokemon.jp/manhole/desc/113/,113
宮崎県/日南市（ダイノーズ）,31.58793,131.4017058,宮崎県,日南市,宮崎県日南市材木町1-10,ダイノーズ,https://local.pokemon.jp/img/p/manhole/8ce155eced18eb9355d00e77741e924b_l.png,https://local.pokemon.jp/manhole/desc/114/,114
宮崎県/小林市（ナッシー・モクロー）,31.95742,131.12641,宮崎県,小林市,宮崎県小林市野尻町東麓5160番地,ナッシー・モクロー,https://local.pokemon.jp/img/p/manhole/0dc396d7b4e206b302245cb286cb828c_l.png,https://local.pokemon.jp/manhole/desc/115/,115
宮崎県/日向市（ナッシー）,32.4253924,131.6277364,宮崎県,日向市,宮崎県日向市上町10736番15,ナッシー,https://local.pokemon.jp/img/p/manhole/cce5f8178d3186bff628ad5efe8e9962_l.png,https://local.pokemon.jp/manhole/desc/116/,116
宮崎県/串間市（ナッシー）,31.36627,131.332809,宮崎県,串間市,宮崎県串間市大字大納42-3,ナッシー,https://local.pokemon.jp/img/p/manhole/eb72ab472d06b001ae7e522937fda3b7_l.png,https://local.pokemon.jp/manhole/desc/117/,117
宮崎県/西都市（ナッシー・キマワリ）,32.106625,131.404508,宮崎県,西都市,宮崎県西都市小野崎1丁目77番地,ナッシー・キマワリ,https://local.pokemon.jp/img/p/manhole/40deb7e698a707b7ae456f46634f6a14_l.png,https://local.pokemon.jp/manhole/desc/118/,118
宮崎県/えびの市（ナッシー・コータス）,32.050305,130.80595,宮崎県,えびの市,宮崎県えびの市大字永山1006番地1,ナッシー・コータス,https://local.pokemon.jp/img/p/manhole/c66068946bb57f85df1cc9221816f761_l.png,https://local.pokemon.jp/manhole/desc/119/,119
宮城県/白石市（ラプラス・クスネ）,38.002511,140.61735,宮城県,白石市,宮城県白石市益岡町1-16,ラプラス・クスネ,https://local.pokemon.jp/img/p/manhole/d86f9fbdc323ccf8a44a1cc61f14cf5a_l.png,https://local.pokemon.jp/manhole/desc/120/,120
宮城県/角田市（ラプラス・ラティアス）,37.968694,140.807077,宮城県,角田市,宮城県角田市枝野字北島81-1,ラプラス・ラティアス,https://local.pokemon.jp/img/p/manhole/8773aebd30abe08aa9ad070610b62d93_l.png,https://local.pokemon.jp/manhole/desc/121/,121
宮城県/登米市（ラプラス・ハスボー）,38.616649,141.235491,宮城県,登米市,宮城県登米市米山町字桜岡貝待井581-2,ラプラス・ハスボー,https://local.pokemon.jp/img/p/manhole/0276a1166ecab2b87231d3556c765167_l.png,https://local.pokemon.jp/manhole/desc/122/,122
宮城県/栗原市（ラプラス・コアルヒー）,38.794479,140.844403,宮城県,栗原市,宮城県栗原市花山字本沢北ノ前112-1,ラプラス・コアルヒー,https://local.pokemon.jp/img/p/manhole/495aa4a82e4831df7c4df483ec3818a8_l.png,https://local.pokemon.jp/manhole/desc/123/,123
宮城県/大崎市（ラプラス・ダグトリオ・オニスズメ）,38.571356,140.967465,宮城県,大崎市,宮城県大崎市古川駅前大通１丁目５　古川駅前,ラプラス・ダグトリオ・オニスズメ,https://local.pokemon.jp/img/p/manhole/60a517309907d70d3227450081b4ca08_l.png,https://local.pokemon.jp/manhole/desc/124/,124
宮城県/富谷市（ラプラス・ブルー）,38.398336,140.8875,宮城県,富谷市,宮城県富谷市富谷新町111,ラプラス・ブルー,https://local.pokemon.jp/img/p/manhole/eb65307347f95b410b10f6de91169728_l.png,https://local.pokemon.jp/manhole/desc/125/,125
宮城県/蔵王町（ラプラス・ユキノオー）,38.123663,140.577192,宮城県,蔵王町,宮城県蔵王町遠刈田温泉仲町34,ラプラス・ユキノオー,https://local.pokemon.jp/img/p/manhole/e293e09c17892a05563f1b2726ed2877_l.png,https://local.pokemon.jp/manhole/desc/126/,126
宮城県/七ヶ宿町（ラプラス・ビーダル）,37.982523,140.46662,宮城県,七ヶ宿町,宮城県七ヶ宿町上野8‐1,ラプラス・ビーダル,https://local.pokemon.jp/img/p/manhole/e57d517a9ceb4985880cf3dc6d58b304_l.png,https://local.pokemon.jp/manhole/desc/127/,127
宮城県/大河原町（ラプラス・チェリム）,38.0485032,140.738089,宮城県,大河原町,宮城県大河原町大谷字町向116-26地先,ラプラス・チェリム,https://local.pokemon.jp/img/p/manhole/b842dfc9874d2e09445e1fc3f38ad9ac_l.png,https://local.pokemon.jp/manhole/desc/128/,128
宮城県/村田町（ラプラス・ベロベルト）,38.119071,140.717821,宮城県,村田町,宮城県村田町大字村田字北塩内41,ラプラス・ベロベルト,https://local.pokemon.jp/img/p/manhole/a7f0559fbfff47ad99d14e2013f91d5c_l.png,https://local.pokemon.jp/manhole/desc/129/,129
宮城県/柴田町（ラプラス・フラベベ）,38.059143,140.768239,宮城県,柴田町,宮城県柴田町船岡中央1丁目1-1,ラプラス・フラベベ,https://local.pokemon.jp/img/p/manhole/db51e7b93287a6d4f02f087a430671d5_l.png,https://local.pokemon.jp/manhole/desc/130/,130
宮城県/川崎町（ラプラス）,38.177534,140.643653,宮城県,川崎町,宮城県川崎町前川字裏丁175-1,ラプラス,https://local.pokemon.jp/img/p/manhole/8d71ae197fd04fb3260e7d1a0696b39d_l.png,https://local.pokemon.jp/manhole/desc/131/,131
宮城県/丸森町（ラプラス・ニャース・ニャスパー）,37.913873,140.762531,宮城県,丸森町,宮城県丸森町字町東77-1,ラプラス・ニャース・ニャスパー,https://local.pokemon.jp/img/p/manhole/08419931d6fb8bc4d905064bbf5ac63f_l.png,https://local.pokemon.jp/manhole/desc/132/,132
宮城県/大和町（ラプラス・タマゲタケ・ドダイトス）,38.437364,140.885648,宮城県,大和町,宮城県大和町吉岡まほろば一丁目1-1前,ラプラス・タマゲタケ・ドダイトス,https://local.pokemon.jp/img/p/manhole/6de105f2caa9cb35a27919fff3c43711_l.png,https://local.pokemon.jp/manhole/desc/133/,133
宮城県/大郷町（ラプラス・チュリネ）,38.424016,140.992673,宮城県,大郷町,宮城県大郷町中村字北浦51-6,ラプラス・チュリネ,https://local.pokemon.jp/img/p/manhole/e4d64849c631f1c55792c162210f83ca_l.png,https://local.pokemon.jp/manhole/desc/134/,134
宮城県/大衡村（ラプラス・プルリル・ラブカス）,38.46943814,140.8902292,宮城県,大衡村,宮城県大衡村大衡字鐙沢12-2,ラプラス・プルリル・ラブカス,https://local.pokemon.jp/img/p/manhole/a6650f6580df0e0e5debb154e1d26824_l.png,https://local.pokemon.jp/manhole/desc/135/,135
宮城県/色麻町（ラプラス・ハスブレロ）,38.530136,140.86142,宮城県,色麻町,宮城県色麻町四竃字東原1-12,ラプラス・ハスブレロ,https://local.pokemon.jp/img/p/manhole/f153fccd4c39fd161721923ee9a1b1db_l.png,https://local.pokemon.jp/manhole/desc/136/,136
宮城県/加美町（ラプラス・ロゼリア）,38.57215,140.72859,宮城県,加美町,宮城県加美町味ヶ袋薬莱原1-76,ラプラス・ロゼリア,https://local.pokemon.jp/img/p/manhole/122780b137abcc24c9987cd2842f4e9e_l.png,https://local.pokemon.jp/manhole/desc/137/,137
宮城県/涌谷町（ラプラス・バンバドロ）,38.5392702,141.1267433,宮城県,涌谷町,宮城県涌谷町字新町裏110,ラプラス・バンバドロ,https://local.pokemon.jp/img/p/manhole/f1eb53fbcfe726de54e319a9741feed6_l.png,https://local.pokemon.jp/manhole/desc/138/,138
宮城県/美里町（ラプラス・ドードー・ドードリオ）,38.489061,141.133053,宮城県,美里町,宮城県美里町木間塚原田5,ラプラス・ドードー・ドードリオ,https://local.pokemon.jp/img/p/manhole/e491789809d4a47d823bfe69df54712c_l.png,https://local.pokemon.jp/manhole/desc/139/,139
北海道/苫小牧市（ロコン・キュウコン）,42.635755,141.61009,北海道,苫小牧市,北海道苫小牧市末広町3丁目1,ロコン・キュウコン,https://local.pokemon.jp/img/p/manhole/d0fd3269d1c6446d47a5d73e39c3273c_l.png,https://local.pokemon.jp/manhole/desc/140/,140
北海道/三笠市（ロコン・オムナイト・ズガイドス）,43.2613165,141.9626673,北海道,三笠市,北海道三笠市幾春別錦町1-212-1,ロコン・オムナイト・ズガイドス,https://local.pokemon.jp/img/p/manhole/37eb2bacbb680049ab0ce47cd56cb080_l.png,https://local.pokemon.jp/manhole/desc/141/,141
北海道/上富良野町（エネコロロ）,43.462246,142.479068,北海道,上富良野町,北海道上富良野町東1線北27号,エネコロロ,https://local.pokemon.jp/img/p/manhole/333446f14d9d7487fd1051ed1a5564d8_l.png,https://local.pokemon.jp/manhole/desc/142/,142
北海道/剣淵町（ヒトツキ）,44.1000303,142.3593096,北海道,剣淵町,北海道剣淵町緑町15-3,ヒトツキ,https://local.pokemon.jp/img/p/manhole/130ae2f0d814df1b0a14c36032523a85_l.png,https://local.pokemon.jp/manhole/desc/143/,143
新潟県/小千谷市（コイキング）,37.314216,138.794792,新潟県,小千谷市,新潟県小千谷市城内2-7-5,コイキング,https://local.pokemon.jp/img/p/manhole/cb0b83a72c4a02d3828408438fe69c79_l.png,https://local.pokemon.jp/manhole/desc/144/,144
新潟県/小千谷市（コイキング）,37.309883,138.812939,新潟県,小千谷市,新潟県小千谷市東栄1-1付近,コイキング,https://local.pokemon.jp/img/p/manhole/b8e14abca7704ade92d80850c539bfa8_l.png,https://local.pokemon.jp/manhole/desc/145/,145
新潟県/小千谷市（コイキング・ヒンバス）,37.311028,138.795653,新潟県,小千谷市,新潟県小千谷市小千谷市城内1-8-22,コイキング・ヒンバス,https://local.pokemon.jp/img/p/manhole/1eb3ac5b96b69515307e7b8d461b83b7_l.png,https://local.pokemon.jp/manhole/desc/146/,146
新潟県/小千谷市（コイキング・ピジョン）,37.314301,138.7835,新潟県,小千谷市,新潟県小千谷市小千谷市大字桜町4915,コイキング・ピジョン,https://local.pokemon.jp/img/p/manhole/1779749989a248a4d80438774bd31c5c_l.png,https://local.pokemon.jp/manhole/desc/147/,147
奈良県/斑鳩町（ドータクン・バオッキー）,34.60189,135.73917,奈良県,斑鳩町,奈良県斑鳩町興留7丁目3番地内,ドータクン・バオッキー,https://local.pokemon.jp/img/p/manhole/8c606a972fea1746e45dea9cf3f87c9e_l.png,https://local.pokemon.jp/manhole/desc/148/,148
奈良県/斑鳩町（マダツボミ・ガーディ）,34.60474,135.7376,奈良県,斑鳩町,奈良県斑鳩町興留5丁目5番28号,マダツボミ・ガーディ,https://local.pokemon.jp/img/p/manhole/d3e08e12b17d3ff3befcd5225d3af30d_l.png,https://local.pokemon.jp/manhole/desc/149/,149
奈良県/斑鳩町（ブビィ・チリーン）,34.60827,135.73769,奈良県,斑鳩町,奈良県斑鳩町興留2丁目1番地内,ブビィ・チリーン,https://local.pokemon.jp/img/p/manhole/138c801dc7696711d46521e013d6d7c3_l.png,https://local.pokemon.jp/manhole/desc/150/,150
奈良県/斑鳩町（ヒノヤコマ・シキジカ）,34.60826,135.73755,奈良県,斑鳩町,奈良県斑鳩町法隆寺南1丁目2番地内,ヒノヤコマ・シキジカ,https://local.pokemon.jp/img/p/manhole/d0bfb7bbc2a06d730b47b017a3e77cf7_l.png,https://local.pokemon.jp/manhole/desc/151/,151
奈良県/斑鳩町（エンテイ）,34.60983,135.73529,奈良県,斑鳩町,奈良県斑鳩町法隆寺1丁目8番25号,エンテイ,https://local.pokemon.jp/img/p/manhole/cf516896b4b7eb0cad8e8e3eeebbc99f_l.png,https://local.pokemon.jp/manhole/desc/152/,152
東京都/小笠原村（フシギバナ）,27.094863,142.194033,東京都,小笠原村,東京都小笠原村父島字東町,フシギバナ,https://local.pokemon.jp/img/p/manhole/f8bada1702ac9b24058746e324095bac_l.png,https://local.pokemon.jp/manhole/desc/153/,153
東京都/小笠原村（リザードン）,27.094708,142.193279,東京都,小笠原村,東京都小笠原村父島字東町,リザードン,https://local.pokemon.jp/img/p/manhole/12cfb1b31e8a73d64c0467c702e420f7_l.png,https://local.pokemon.jp/manhole/desc/154/,154
東京都/小笠原村（カメックス）,27.094596,142.192781,東京都,小笠原村,東京都小笠原村父島字東町,カメックス,https://local.pokemon.jp/img/p/manhole/a0a9f2d7186f56fedadabc010c395e83_l.png,https://local.pokemon.jp/manhole/desc/155/,155
東京都/小笠原村（ミュウ）,27.09448,142.19235,東京都,小笠原村,東京都小笠原村父島字東町,ミュウ,https://local.pokemon.jp/img/p/manhole/e7ddf7adbf8b01ad1e4c6ffd6c931352_l.png,https://local.pokemon.jp/manhole/desc/156/,156
青森県/八戸市（イシツブテ・キャモメ）,40.537937,141.558034,青森県,八戸市,青森県八戸市大字鮫町鮫付近,イシツブテ・キャモメ,https://local.pokemon.jp/img/p/manhole/980e5418dbdef7582b162d577ad77cf7_l.png,https://local.pokemon.jp/manhole/desc/157/,157
青森県/階上町（ナマコブシ・バチンウニ・ユキハミ）,40.458437,141.608335,青森県,階上町,青森県階上町大字道仏字耳ケ吠3-3,ナマコブシ・バチンウニ・ユキハミ,https://local.pokemon.jp/img/p/manhole/1723f48f98735fe88693db2547152835_l.png,https://local.pokemon.jp/manhole/desc/158/,158
京都府/京都市（ホウオウ）,35.011863,135.678745,京都府,京都市,京都府京都市右京区嵯峨中ノ島町,ホウオウ,https://local.pokemon.jp/img/p/manhole/dadd75c86a5e66bf5392ba13716c2dfe_l.png,https://local.pokemon.jp/manhole/desc/159/,159
京都府/京都市（ピチュー・ピィ・ププリン）,35.00337,135.780573,京都府,京都市,京都府京都市東山区円山町,ピチュー・ピィ・ププリン,https://local.pokemon.jp/img/p/manhole/61ed5a9f280a92b6a49269897c80870c_l.png,https://local.pokemon.jp/manhole/desc/160/,160
京都府/京都市（チコリータ・ダーテング）,34.994784,135.714323,京都府,京都市,京都府京都市右京区西京極新明町,チコリータ・ダーテング,https://local.pokemon.jp/img/p/manhole/b6f13ec6de50c92ec0733c3a0a052095_l.png,https://local.pokemon.jp/manhole/desc/161/,161
京都府/京都市（ヒノアラシ・ヒヒダルマ）,35.014858,135.782013,京都府,京都市,京都府京都市左京区岡崎最勝寺町,ヒノアラシ・ヒヒダルマ,https://local.pokemon.jp/img/p/manhole/6e0c231cc1175791b00694844dc42904_l.png,https://local.pokemon.jp/manhole/desc/162/,162
京都府/京都市（ワニノコ・マリルリ）,34.987804,135.743538,京都府,京都市,京都府京都市下京区観喜寺町,ワニノコ・マリルリ,https://local.pokemon.jp/img/p/manhole/e923d93de75da9471bc1eb6b2504b721_l.png,https://local.pokemon.jp/manhole/desc/163/,163
宮崎県/三股町（ナッシー・コロモリ）,31.73375,131.120309,宮崎県,三股町,宮崎県三股町大字樺山4421-22,ナッシー・コロモリ,https://local.pokemon.jp/img/p/manhole/7e8cdc1e3864f6802fe5c7c531f68074_l.png,https://local.pokemon.jp/manhole/desc/164/,164
宮崎県/高鍋町,32.115956,131.532841,宮崎県,高鍋町,宮崎県高鍋町大字蚊口浦字蚊口6259-1,,https://local.pokemon.jp/img/p/manhole/7020590767375a1d51a3bb6af9b37edf_l.png,https://local.pokemon.jp/manhole/desc/165/,165
宮崎県/新富町（マクノシタ）,32.073902,131.495719,宮崎県,新富町,宮崎県新富町大字三納代1839（三納代広場）,マクノシタ,https://local.pokemon.jp/img/p/manhole/73c6c49f8aa194dcb52da6808758de16_l.png,https://local.pokemon.jp/manhole/desc/166/,166
宮崎県/木城町（ナッシー・メタモン）,32.1682457,131.4782857,宮崎県,木城町,宮崎県木城町高城１４０３−１,ナッシー・メタモン,https://local.pokemon.jp/img/p/manhole/dd75e9254b02cf00906b22ece20ed6a2_l.png,https://local.pokemon.jp/manhole/desc/167/,167
宮崎県/川南町（ナッシー・ヌマクロー）,32.191491,131.528984,宮崎県,川南町,宮崎県川南町大字平田2386番地3,ナッシー・ヌマクロー,https://local.pokemon.jp/img/p/manhole/3da8c4d33f82dbd65c7092f4080c88ab_l.png,https://local.pokemon.jp/manhole/desc/168/,168
宮崎県/都農町（ブイゼル）,32.2609016,131.5575768,宮崎県,都農町,宮崎県都農町大字川北5129,ブイゼル,https://local.pokemon.jp/img/p/manhole/249dfc49428f58aff38f37c46131982e_l.png,https://local.pokemon.jp/manhole/desc/169/,169
宮崎県/門川町（マケンカニ）,32.487021,131.676733,宮崎県,門川町,宮崎県門川町大字庵川2822番地,マケンカニ,https://local.pokemon.jp/img/p/manhole/1d1261134ec64c046aacae63dba74c6f_l.png,https://local.pokemon.jp/manhole/desc/170/,170
宮崎県/美郷町（ナッシー・タマタマ）,32.431976,131.467551,宮崎県,美郷町,宮崎県美郷町西郷田代5812-1,ナッシー・タマタマ,https://local.pokemon.jp/img/p/manhole/338c34ed7b70c9a65755b2894a04ecc1_l.png,https://local.pokemon.jp/manhole/desc/171/,171
東京都/台東区上野（チゴラス・ソーナノ）,35.71681,139.776399,東京都,台東区上野,東京都台東区上野公園7-20,チゴラス・ソーナノ,https://local.pokemon.jp/img/p/manhole/461c1ae602ab3848aaa395fd03e5fa00_l.png,https://local.pokemon.jp/manhole/desc/172/,172
東京都/台東区上野（ヤジロン・ドーミラー）,35.717715,139.775397,東京都,台東区上野,東京都台東区上野公園13-9,ヤジロン・ドーミラー,https://local.pokemon.jp/img/p/manhole/eb25062c31cfbbbf2e120451b3b76492_l.png,https://local.pokemon.jp/manhole/desc/173/,173
沖縄県/那覇市（ウインディ）,26.21641,127.68942,沖縄県,那覇市,沖縄県那覇市牧志3丁目2,ウインディ,https://local.pokemon.jp/img/p/manhole/38ee8e633d933570a2506d1ceba9290b_l.png,https://local.pokemon.jp/manhole/desc/174/,174
沖縄県/宜野湾市（サニーゴ・ラブカス）,26.28139,127.732215,沖縄県,宜野湾市,沖縄県宜野湾市真志喜4-2-1,サニーゴ・ラブカス,https://local.pokemon.jp/img/p/manhole/130f21e980593ce7e537a81a804a1bc3_l.png,https://local.pokemon.jp/manhole/desc/175/,175
沖縄県/沖縄市（バチンキー・ラランテス）,26.32766,127.803001,沖縄県,沖縄市,沖縄県沖縄市胡屋5-7-1,バチンキー・ラランテス,https://local.pokemon.jp/img/p/manhole/b084912808574bde91de683704e1503d_l.png,https://local.pokemon.jp/manhole/desc/176/,176
沖縄県/うるま市（ケンタロス）,26.436181,127.826113,沖縄県,うるま市,沖縄県うるま市石川2316,ケンタロス,https://local.pokemon.jp/img/p/manhole/1a8c0a85ed3586e6076dac22272185d7_l.png,https://local.pokemon.jp/manhole/desc/177/,177
宮崎県/高原町（ナッシー・ムチュール）,31.907234,130.960187,宮崎県,高原町,宮崎県高原町大字蒲牟田3-251,ナッシー・ムチュール,https://local.pokemon.jp/img/p/manhole/916517348882e6d81c6fd8e163ac8352_l.png,https://local.pokemon.jp/manhole/desc/178/,178
宮崎県/国富町（ゴクリン）,31.988591,131.321916,宮崎県,国富町,宮崎県国富町大字本庄4043-5,ゴクリン,https://local.pokemon.jp/img/p/manhole/73fdb713c9cec2bed36f015248b51725_l.png,https://local.pokemon.jp/manhole/desc/179/,179
宮崎県/綾町（ナッシー・ナマケロ）,31.9989753,131.2537536,宮崎県,綾町,宮崎県綾町大字南俣515番地,ナッシー・ナマケロ,https://local.pokemon.jp/img/p/manhole/ec206a3b8bd4d61296485b207d204370_l.png,https://local.pokemon.jp/manhole/desc/180/,180
宮崎県/西米良村（ゴルーグ）,32.223238,131.16329,宮崎県,西米良村,宮崎県西米良村大字村所260-6,ゴルーグ,https://local.pokemon.jp/img/p/manhole/d8eb6198c178641e316d0936fccd06e0_l.png,https://local.pokemon.jp/manhole/desc/181/,181
宮崎県/諸塚村（ナッシー・レジロック）,32.509811,131.331498,宮崎県,諸塚村,宮崎県諸塚村大字家代2640-18,ナッシー・レジロック,https://local.pokemon.jp/img/p/manhole/4214e59f59260308035a93441400b6fa_l.png,https://local.pokemon.jp/manhole/desc/182/,182
宮崎県/椎葉村（ナッシー・シンボラー）,32.458153,131.153831,宮崎県,椎葉村,宮崎県椎葉村大字下福良1829番地57,ナッシー・シンボラー,https://local.pokemon.jp/img/p/manhole/a612a2a3e3d6d9a6cb7641ce25cfcdb7_l.png,https://local.pokemon.jp/manhole/desc/183/,183
宮崎県/高千穂町（ナッシー・レジギガス）,32.707748,131.305889,宮崎県,高千穂町,宮崎県高千穂町大字三田井1099-1,ナッシー・レジギガス,https://local.pokemon.jp/img/p/manhole/ba1ab8ae9af98b080f9ed1d867cb75c9_l.png,https://local.pokemon.jp/manhole/desc/184/,184
宮崎県/日之影町（ナッシー・レジスチル）,32.660643,131.388639,宮崎県,日之影町,宮崎県日之影町大字七折8705-12,ナッシー・レジスチル,https://local.pokemon.jp/img/p/manhole/dbe8fa0ecdf59974cf1c01b55f7f089b_l.png,https://local.pokemon.jp/manhole/desc/185/,185
宮崎県/五ヶ瀬町（ナッシー・レジアイス）,32.679051,131.210041,宮崎県,五ヶ瀬町,宮崎県五ヶ瀬町三ヶ所9400 Gパーク五ヶ瀬町総合公園内,ナッシー・レジアイス,https://local.pokemon.jp/img/p/manhole/aa92f7d136b868b5252b1fc6994ce947_l.png,https://local.pokemon.jp/manhole/desc/186/,186
北海道/函館市（トゲキッス）,41.755926,140.715684,北海道,函館市,北海道函館市青柳町17,トゲキッス,https://local.pokemon.jp/img/p/manhole/acac72c0b33b4df7f2a735443fc8eacf_l.png,https://local.pokemon.jp/manhole/desc/187/,187
北海道/小樽市,43.195544,140.998285,北海道,小樽市,北海道小樽市稲穂1丁目3番8号,,https://local.pokemon.jp/img/p/manhole/5a324c4217960388cb12d0c412bb2ae5_l.png,https://local.pokemon.jp/manhole/desc/188/,188
北海道/根室市（バリコオル）,43.335936,145.598194,北海道,根室市,北海道根室市牧の内146番地243　明治公園内,バリコオル,https://local.pokemon.jp/img/p/manhole/ef06fc22ce5dae9e3683d8fec4a9f68e_l.png,https://local.pokemon.jp/manhole/desc/189/,189
北海道/登別市（ロコン・キテルグマ）,42.452786,141.180999,北海道,登別市,北海道登別市登別市登別港町１丁目4-9,ロコン・キテルグマ,https://local.pokemon.jp/img/p/manhole/171f0782befe20c0ce34ea9cf2a069ef_l.png,https://local.pokemon.jp/manhole/desc/190/,190
北海道/本別町（ロコン・メタモン）,43.125781,143.613441,北海道,本別町,北海道本別町北3丁目1-2,ロコン・メタモン,https://local.pokemon.jp/img/p/manhole/c196a6a082f5b38bd76fb1a6acb8b999_l.png,https://local.pokemon.jp/manhole/desc/191/,191
北海道/陸別町（カチコール）,43.467701,143.742721,北海道,陸別町,北海道陸別町字陸別原野基線69-1,カチコール,https://local.pokemon.jp/img/p/manhole/3085ebc53a5477aed032335bdc1c5d7e_l.png,https://local.pokemon.jp/manhole/desc/192/,192
北海道/中標津町（ロコン・ワカシャモ）,43.554566,144.969609,北海道,中標津町,北海道中標津町丸山2丁目1番地18,ロコン・ワカシャモ,https://local.pokemon.jp/img/p/manhole/690d084c832f1c94f9c765c47fb5d3b4_l.png,https://local.pokemon.jp/manhole/desc/193/,193
岡山県/倉敷市（ルカリオ）,34.43427,133.81388,岡山県,倉敷市,岡山県倉敷市下津井田之浦1-1,ルカリオ,https://local.pokemon.jp/img/p/manhole/12a7f3eb91387a2de15ce4a4d07b76d9_l.png,https://local.pokemon.jp/manhole/desc/194/,194
岡山県/倉敷市（ポチエナ・アゲハント）,34.59556,133.76888,岡山県,倉敷市,岡山県倉敷市中央2-6-1,ポチエナ・アゲハント,https://local.pokemon.jp/img/p/manhole/0fece4439cad84d032b8b5b1abe4bfbe_l.png,https://local.pokemon.jp/manhole/desc/195/,195
岡山県/倉敷市（サルノリ・ワタシラガ）,34.59274,133.77046,岡山県,倉敷市,岡山県倉敷市中央1-18-1,サルノリ・ワタシラガ,https://local.pokemon.jp/img/p/manhole/bc3943f41c55662b08fff143d35e6001_l.png,https://local.pokemon.jp/manhole/desc/196/,196
岡山県/倉敷市（ケンホロウ）,34.59829,133.77029,岡山県,倉敷市,岡山県倉敷市阿知2丁目17,ケンホロウ,https://local.pokemon.jp/img/p/manhole/57b32929e283717a3c17bf5694ee5331_l.png,https://local.pokemon.jp/manhole/desc/197/,197
福岡県/北九州市（ボスゴドラ）,33.884982,130.876213,福岡県,北九州市,福岡県北九州市小倉北区室町一丁目1　リバーウォーク北九州,ボスゴドラ,https://local.pokemon.jp/img/p/manhole/b13f6216991b853d40f37921b7b1a75c_l.png,https://local.pokemon.jp/manhole/desc/198/,198
福岡県/北九州市（トロッゴン）,33.890528,130.884609,福岡県,北九州市,福岡県北九州市小倉北区浅野三丁目5　あさの汐風公園,トロッゴン,https://local.pokemon.jp/img/p/manhole/19ddba7b284e5f5bc16a8ac6b62776d1_l.png,https://local.pokemon.jp/manhole/desc/199/,199
福岡県/北九州市（ヤミラミ・ジュラルドン）,33.87192,130.807892,福岡県,北九州市,福岡県北九州市八幡東区東田４丁目１１,ヤミラミ・ジュラルドン,https://local.pokemon.jp/img/p/manhole/ffa7e3a05b778ee19eb7e1c648fab1d3_l.png,https://local.pokemon.jp/manhole/desc/200/,200
福岡県/北九州市（サーナイト・ルナトーン）,33.946285,130.964119,福岡県,北九州市,福岡県北九州市門司区港町5　門司港レトロ地区,サーナイト・ルナトーン,https://local.pokemon.jp/img/p/manhole/c61b90c00e7cc84c950a7c030240fc4f_l.png,https://local.pokemon.jp/manhole/desc/201/,201
福岡県/北九州市（トロピウス）,33.957206,130.96161,福岡県,北九州市,福岡県北九州市門司区旧門司二丁目5　ノーフォーク広場,トロピウス,https://local.pokemon.jp/img/p/manhole/8bc29983cee8593f888c394b13b50b06_l.png,https://local.pokemon.jp/manhole/desc/202/,202
兵庫県/淡路市（ルギア）,34.601828,135.009441,兵庫県,淡路市,兵庫県淡路市岩屋1873-1,ルギア,https://local.pokemon.jp/img/p/manhole/3b9a7a603fe46a8c9ca44daa6d465c4e_l.png,https://local.pokemon.jp/manhole/desc/203/,203
兵庫県/淡路市（ベイリーフ・フレフワン）,34.550436,134.938094,兵庫県,淡路市,兵庫県淡路市小倉177,ベイリーフ・フレフワン,https://local.pokemon.jp/img/p/manhole/521884db6e67a711689a534f225e5555_l.png,https://local.pokemon.jp/manhole/desc/204/,204
兵庫県/淡路市（パルシェン・トリトドン）,34.482151,134.873103,兵庫県,淡路市,兵庫県淡路市尾崎3025-1,パルシェン・トリトドン,https://local.pokemon.jp/img/p/manhole/8e5813792f66a65c189ff519bafd76e8_l.png,https://local.pokemon.jp/manhole/desc/205/,205
大阪府/東大阪市（コイル・レアコイル）,34.679788,135.601221,大阪府,東大阪市,大阪府東大阪市荒本北1丁目1番1号,コイル・レアコイル,https://local.pokemon.jp/img/p/manhole/8b79e350ab1d04a38f8dffc6baed16e5_l.png,https://local.pokemon.jp/manhole/desc/206/,206
大阪府/東大阪市（ギアル・ギギアル）,34.66771,135.63989,大阪府,東大阪市,大阪府東大阪市旭町1番1号,ギアル・ギギアル,https://local.pokemon.jp/img/p/manhole/cd700d469950e929688fda7b763b46b9_l.png,https://local.pokemon.jp/manhole/desc/207/,207
大阪府/東大阪市（エレキッド・クチート）,34.680678,135.650788,大阪府,東大阪市,大阪府東大阪市東石切町2-4,エレキッド・クチート,https://local.pokemon.jp/img/p/manhole/82bcc43d44a0c0ce158820a770ea8abb_l.png,https://local.pokemon.jp/manhole/desc/208/,208
大阪府/東大阪市（ライコウ）,34.667678,135.626309,大阪府,東大阪市,大阪府東大阪市松原南1-1,ライコウ,https://local.pokemon.jp/img/p/manhole/d39830afa4791086bcb803f16950c7a2_l.png,https://local.pokemon.jp/manhole/desc/209/,209
大阪府/東大阪市（ワンパチ・トゲデマル）,34.669486,135.630586,大阪府,東大阪市,大阪府東大阪市松原南2-6,ワンパチ・トゲデマル,https://local.pokemon.jp/img/p/manhole/c5b049a0ebabbe4653c901d1d7d285a5_l.png,https://local.pokemon.jp/manhole/desc/210/,210
埼玉県/所沢市（ミニリュウ・アーマーガア）,35.797482,139.505528,埼玉県,所沢市,埼玉県所沢市松郷143-3,ミニリュウ・アーマーガア,https://local.pokemon.jp/img/p/manhole/f2dfd29ec753fb46d12d81af9736e548_l.png,https://local.pokemon.jp/manhole/desc/211/,211
埼玉県/所沢市（ハクリュー・エアームド）,35.786887,139.472881,埼玉県,所沢市,埼玉県所沢市日吉町1,ハクリュー・エアームド,https://local.pokemon.jp/img/p/manhole/5296fd3ea597bbc66ac66444cd22cbf3_l.png,https://local.pokemon.jp/manhole/desc/212/,212
埼玉県/所沢市（カイリュー）,35.798734,139.471991,埼玉県,所沢市,埼玉県所沢市並木1-13,カイリュー,https://local.pokemon.jp/img/p/manhole/aeaf1d2fff879ae33fca2eb1ba4a69e8_l.png,https://local.pokemon.jp/manhole/desc/213/,213
北海道/旭川市（コオリッポ・クマシュン）,43.7595958,142.3485094,北海道,旭川市,北海道旭川市神楽4条6丁目1-12,コオリッポ・クマシュン,https://local.pokemon.jp/img/p/manhole/98f049601f822ae15722cb1f18b781b0_l.png,https://local.pokemon.jp/manhole/desc/214/,214
北海道/釧路市（ジュナイパー）,43.144027,144.14549,北海道,釧路市,北海道釧路市阿寒町上阿寒23線36番地1,ジュナイパー,https://local.pokemon.jp/img/p/manhole/a3d69726d4c689718117f62c9aef41e7_l.png,https://local.pokemon.jp/manhole/desc/215/,215
北海道/帯広市（ロコン・ドロバンコ）,42.918205,143.202563,北海道,帯広市,北海道帯広市西2条南12丁目6,ロコン・ドロバンコ,https://local.pokemon.jp/img/p/manhole/978d53fbb05f1fc405e8f52a26325b90_l.png,https://local.pokemon.jp/manhole/desc/216/,216
北海道/網走市（マニューラ）,44.021949,144.274423,北海道,網走市,北海道網走市南3条東4丁目5-1,マニューラ,https://local.pokemon.jp/img/p/manhole/7f513d0f647dc5adfe2e0576aedaf871_l.png,https://local.pokemon.jp/manhole/desc/217/,217
北海道/赤井川村（バニプッチ・ミブリム）,43.05125,140.844262,北海道,赤井川村,北海道赤井川村字都190番地16,バニプッチ・ミブリム,https://local.pokemon.jp/img/p/manhole/f141860f843e06b962fcbd5c4d699d6e_l.png,https://local.pokemon.jp/manhole/desc/218/,218
北海道/東川町（ディアルガ）,43.698404,142.507039,北海道,東川町,北海道東川町北町1丁目1番2号,ディアルガ,https://local.pokemon.jp/img/p/manhole/97cab8cd9571ac26cba4a7a16bb12770_l.png,https://local.pokemon.jp/manhole/desc/219/,219
北海道/斜里町（ロコン・パルキア）,44.06884,144.99062,北海道,斜里町,北海道斜里町ウトロ西186番地8,ロコン・パルキア,https://local.pokemon.jp/img/p/manhole/1c18c9f749dced78800c3893890d0fbc_l.png,https://local.pokemon.jp/manhole/desc/220/,220
北海道/えりも町,42.01782,143.14619,北海道,えりも町,北海道えりも町本町53-1,,https://local.pokemon.jp/img/p/manhole/d6112e741a398a77436b6a4eca00b2cf_l.png,https://local.pokemon.jp/manhole/desc/221/,221
千葉県/香取市,35.894417,140.493902,千葉県,香取市,千葉県香取市佐原イ109-14,,https://local.pokemon.jp/img/p/manhole/c9284e72a57917ac1347408c2c48b8a7_l.png,https://local.pokemon.jp/manhole/desc/222/,222
千葉県/香取市（ココガラ・タイレーツ）,35.888376,140.497568,千葉県,香取市,千葉県香取市佐原イ1722-1,ココガラ・タイレーツ,https://local.pokemon.jp/img/p/manhole/e20be7f7c65fda5d7808a88ca8ed6d78_l.png,https://local.pokemon.jp/manhole/desc/223/,223
千葉県/香取市（フラージェス・ヤヤコマ）,35.928206,140.523401,千葉県,香取市,千葉県香取市佐原ハ4549-1,フラージェス・ヤヤコマ,https://local.pokemon.jp/img/p/manhole/0ca06ae099f30906d35f7061ac70f433_l.png,https://local.pokemon.jp/manhole/desc/224/,224
千葉県/香取市（ハスボー・タネボー・ムクバード）,35.896204,140.506419,千葉県,香取市,千葉県香取市佐原イ4053-3,ハスボー・タネボー・ムクバード,https://local.pokemon.jp/img/p/manhole/23d6d594e7a3c463148f8a6122377134_l.png,https://local.pokemon.jp/manhole/desc/225/,225
栃木県/宇都宮市（エレブー・ホシガリス）,36.56077,139.909489,栃木県,宇都宮市,栃木県宇都宮市元今泉5丁目10-1,エレブー・ホシガリス,https://local.pokemon.jp/img/p/manhole/52fdbecd02d60456608847e86f3e8964_l.png,https://local.pokemon.jp/manhole/desc/226/,226
栃木県/宇都宮市（ラクライ・イワパレス）,36.63422,139.83102,栃木県,宇都宮市,栃木県宇都宮市新里町丙254番地,ラクライ・イワパレス,https://local.pokemon.jp/img/p/manhole/e3b4858f5d9d3e0dc78c355976453448_l.png,https://local.pokemon.jp/manhole/desc/227/,227
栃木県/宇都宮市（ボルトロス）,36.57228,139.88722,栃木県,宇都宮市,栃木県宇都宮市大曽2丁目地内,ボルトロス,https://local.pokemon.jp/img/p/manhole/614ba5f80e044574e4f5fa79677fa37f_l.png,https://local.pokemon.jp/manhole/desc/228/,228
沖縄県/浦添市（ソルロック・ポポッコ）,26.245559,127.687899,沖縄県,浦添市,沖縄県浦添市勢理客4-14-1,ソルロック・ポポッコ,https://local.pokemon.jp/img/p/manhole/f845741c04f2845bd5ca99241c714706_l.png,https://local.pokemon.jp/manhole/desc/229/,229
沖縄県/名護市（エモンガ・ツツケラ）,26.587352,127.985744,沖縄県,名護市,沖縄県名護市城二丁目321番3,エモンガ・ツツケラ,https://local.pokemon.jp/img/p/manhole/73c010eaa7438086463ffc02641320d9_l.png,https://local.pokemon.jp/manhole/desc/230/,230
沖縄県/糸満市（カメール・スナバァ）,26.13828,127.661336,沖縄県,糸満市,沖縄県糸満市西崎町4丁目19-1,カメール・スナバァ,https://local.pokemon.jp/img/p/manhole/e3d0f526cfd0d3725b9814853efd7932_l.png,https://local.pokemon.jp/manhole/desc/231/,231
沖縄県/本部町（ホエルオー）,26.691694,127.877972,沖縄県,本部町,沖縄県本部町字石川　海洋博公園地内,ホエルオー,https://local.pokemon.jp/img/p/manhole/ace6dd945ee55438d6cc274d7d64dce2_l.png,https://local.pokemon.jp/manhole/desc/232/,232
沖縄県/豊見城市（キバゴ・ジャラコ）,26.15755646,127.656121,沖縄県,豊見城市,沖縄県豊見城市字豊崎1-1162,キバゴ・ジャラコ,https://local.pokemon.jp/img/p/manhole/07ed34f46b856337cea843d294287933_l.png,https://local.pokemon.jp/manhole/desc/233/,233
沖縄県/南城市（ハブネーク・ザングース）,26.169111,127.827083,沖縄県,南城市,沖縄県南城市知念久手堅541,ハブネーク・ザングース,https://local.pokemon.jp/img/p/manhole/037ab104126f6843a4d1264f42926ab5_l.png,https://local.pokemon.jp/manhole/desc/234/,234
沖縄県/石垣市（マンタイン・テッポウオ）,24.337418,124.156947,沖縄県,石垣市,沖縄県石垣市美崎町1,マンタイン・テッポウオ,https://local.pokemon.jp/img/p/manhole/070b79a26c3156a55e5f6b29b4780493_l.png,https://local.pokemon.jp/manhole/desc/235/,235
沖縄県/宮古島市（カイオーガ）,24.734962,125.263088,沖縄県,宮古島市,沖縄県宮古島市下地与那覇1199-1,カイオーガ,https://local.pokemon.jp/img/p/manhole/088f26f6fd18af3f64cc8d3e05af29ba_l.png,https://local.pokemon.jp/manhole/desc/236/,236
滋賀県/甲賀市（ゲッコウガ）,34.919591,136.170196,滋賀県,甲賀市,滋賀県甲賀市甲南町竜法師600,ゲッコウガ,https://local.pokemon.jp/img/p/manhole/675edfc1e37d6a294429a9e35ed48504_l.png,https://local.pokemon.jp/manhole/desc/237/,237
滋賀県/甲賀市（ゲッコウガ）,34.960528,136.165168,滋賀県,甲賀市,滋賀県甲賀市水口町北内貴230,ゲッコウガ,https://local.pokemon.jp/img/p/manhole/696baacc3630dbd8654850d1fb764e25_l.png,https://local.pokemon.jp/manhole/desc/238/,238
滋賀県/甲賀市（ゲッコウガ・ゲコガシラ）,34.900437,136.229399,滋賀県,甲賀市,滋賀県甲賀市甲賀町大久保507番地2,ゲッコウガ・ゲコガシラ,https://local.pokemon.jp/img/p/manhole/723d14bb4afb1187b258976aa5094e0a_l.png,https://local.pokemon.jp/manhole/desc/239/,239
三重県/津市（ミジュマル）,34.718493,136.5108,三重県,津市,三重県津市大門7-4,ミジュマル,https://local.pokemon.jp/img/p/manhole/ff1d441d552b5c89cd7254c986834349_l.png,https://local.pokemon.jp/manhole/desc/240/,240
三重県/四日市市（ミジュマル・ダイケンキ）,34.952407,136.611964,三重県,四日市市,三重県四日市市日永東一丁目3-21,ミジュマル・ダイケンキ,https://local.pokemon.jp/img/p/manhole/38c81224354dc5eded2c52057638d817_l.png,https://local.pokemon.jp/manhole/desc/241/,241
三重県/伊勢市（ミジュマル・リーシャン）,34.487787,136.707097,三重県,伊勢市,三重県伊勢市本町20,ミジュマル・リーシャン,https://local.pokemon.jp/img/p/manhole/a61f60d4ef8ae9a401cc322fe9953951_l.png,https://local.pokemon.jp/manhole/desc/242/,242
三重県/鳥羽市（ミジュマル・ジュゴン）,34.48691,136.844825,三重県,鳥羽市,三重県鳥羽市鳥羽一丁目2383-42,ミジュマル・ジュゴン,https://local.pokemon.jp/img/p/manhole/c59edcc8c3f844e2d4b2d50b5b63f70e_l.png,https://local.pokemon.jp/manhole/desc/243/,243
三重県/熊野市（ミジュマル・ヌイコグマ）,33.891753,136.116125,三重県,熊野市,三重県熊野市木本町1835-7,ミジュマル・ヌイコグマ,https://local.pokemon.jp/img/p/manhole/642d73fc0560c98d9bb2123d61fe178a_l.png,https://local.pokemon.jp/manhole/desc/244/,244
三重県/志摩市（ミジュマル・パールル）,34.275988,136.898317,三重県,志摩市,三重県志摩市大王町波切110-3,ミジュマル・パールル,https://local.pokemon.jp/img/p/manhole/2ff24b4155bf1e32a81d809c7e8fa0c4_l.png,https://local.pokemon.jp/manhole/desc/245/,245
三重県/伊賀市（ミジュマル・アギルダー）,34.767543,136.130081,三重県,伊賀市,三重県伊賀市上野丸之内504,ミジュマル・アギルダー,https://local.pokemon.jp/img/p/manhole/871d23d6e3da74231cd6d0c402b2ec3e_l.png,https://local.pokemon.jp/manhole/desc/246/,246
福島県/福島市（ラッキー・モルペコ）,37.80441,140.41091,福島県,福島市,福島県福島市大笹生字月崎1-1,ラッキー・モルペコ,https://local.pokemon.jp/img/p/manhole/51ecc24c889978ded00d42af017a2958_l.png,https://local.pokemon.jp/manhole/desc/247/,247
福島県/会津若松市（ラッキー・エルレイド）,37.461098,139.927545,福島県,会津若松市,福島県会津若松市門田町大字堤沢村上164 会津総合運動公園内,ラッキー・エルレイド,https://local.pokemon.jp/img/p/manhole/1adfd8a3e9e1b10828f4e0deefa93853_l.png,https://local.pokemon.jp/manhole/desc/248/,248
福島県/郡山市（ラッキー・プリン）,37.396784,140.35612,福島県,郡山市,福島県郡山市開成1丁目5,ラッキー・プリン,https://local.pokemon.jp/img/p/manhole/ca3e03abbe191764b6fde926eed1a5da_l.png,https://local.pokemon.jp/manhole/desc/249/,249
福島県/南会津町（ラッキー・ドッコラー）,37.2057204,139.7778739,福島県,南会津町,福島県南会津町田島字宮本東33番地１,ラッキー・ドッコラー,https://local.pokemon.jp/img/p/manhole/50c29ca481ea4d2f804361c903447b30_l.png,https://local.pokemon.jp/manhole/desc/250/,250
福島県/柳津町（ラッキー・ピンプク）,37.528189,139.722662,福島県,柳津町,福島県柳津町大字柳津字下平乙161番地1,ラッキー・ピンプク,https://local.pokemon.jp/img/p/manhole/d2bf4080f4238cfa64011f8329c35fd1_l.png,https://local.pokemon.jp/manhole/desc/251/,251
福島県/昭和村（ラッキー・クルミル）,37.325691,139.630641,福島県,昭和村,福島県昭和村大字佐倉字上ノ原1番地,ラッキー・クルミル,https://local.pokemon.jp/img/p/manhole/6b321ff06f50ac051b7f30760a91a093_l.png,https://local.pokemon.jp/manhole/desc/252/,252
福島県/双葉町（ラッキー・ヒマナッツ）,37.45745,141.02692,福島県,双葉町,福島県双葉町大字中野字高田1番地1,ラッキー・ヒマナッツ,https://local.pokemon.jp/img/p/manhole/8d9e484d1f4e4ded757f196708543042_l.png,https://local.pokemon.jp/manhole/desc/253/,253
福島県/飯舘村（ラッキー・フラエッテ）,37.698145,140.735552,福島県,飯舘村,福島県飯舘村深谷字深谷前11-1,ラッキー・フラエッテ,https://local.pokemon.jp/img/p/manhole/3260540897d76440bd153d443780999d_l.png,https://local.pokemon.jp/manhole/desc/254/,254
佐賀県/佐賀市（ニャース）,33.25075645,130.2989299,佐賀県,佐賀市,佐賀県佐賀市松原1丁目1-1,ニャース,https://local.pokemon.jp/img/p/manhole/f7760dab549440c477f8b489e1add1ed_l.png,https://local.pokemon.jp/manhole/desc/255/,255
佐賀県/佐賀市,33.24833583,130.3089011,佐賀県,佐賀市,佐賀県佐賀市水ヶ江2丁目11-11,,https://local.pokemon.jp/img/p/manhole/aa70252404971db18df4f2bc527a951c_l.png,https://local.pokemon.jp/manhole/desc/256/,256
佐賀県/佐賀市,33.24900974,130.3003128,佐賀県,佐賀市,佐賀県佐賀市城内1丁目1-59,,https://local.pokemon.jp/img/p/manhole/64eddebc32fe29d163ab826aea4181c1_l.png,https://local.pokemon.jp/manhole/desc/257/,257
岩手県/花巻市（イシツブテ・コスモッグ・レックウザ）,39.392034,141.11169,岩手県,花巻市,岩手県花巻市大通り1丁目2−21,イシツブテ・コスモッグ・レックウザ,https://local.pokemon.jp/img/p/manhole/17c410916387ddddbd7f807b04947683_l.png,https://local.pokemon.jp/manhole/desc/258/,258
岩手県/遠野市（イシツブテ・ハスブレロ・ルンパッパ）,39.330638,141.528872,岩手県,遠野市,岩手県遠野市中央通り4−6,イシツブテ・ハスブレロ・ルンパッパ,https://local.pokemon.jp/img/p/manhole/863f98fb33b3066069009fc1ca95df3a_l.png,https://local.pokemon.jp/manhole/desc/259/,259
岩手県/一関市（イシツブテ・ダンゴロ・ドサイドン）,38.98958,141.25527,岩手県,一関市,岩手県一関市東山町長坂字町467-１,イシツブテ・ダンゴロ・ドサイドン,https://local.pokemon.jp/img/p/manhole/453d04268259621cd2081a81428b81d8_l.png,https://local.pokemon.jp/manhole/desc/260/,260
岩手県/二戸市（イシツブテ・ユキワラシ）,40.320335,141.318849,岩手県,二戸市,岩手県二戸市金田一字湯田41,イシツブテ・ユキワラシ,https://local.pokemon.jp/img/p/manhole/ea457a9ac12cd61461471430fa04872e_l.png,https://local.pokemon.jp/manhole/desc/261/,261
岩手県/八幡平市（イシツブテ・アマルス）,39.87958,141.099388,岩手県,八幡平市,岩手県八幡平市大更第2地割154−36,イシツブテ・アマルス,https://local.pokemon.jp/img/p/manhole/ceed9f9a751f47fe1f935b99da1e094e_l.png,https://local.pokemon.jp/manhole/desc/262/,262
岩手県/滝沢市（イシツブテ・ドロバンコ・ルチャブル）,39.734,141.07829,岩手県,滝沢市,岩手県滝沢市下鵜飼1−15,イシツブテ・ドロバンコ・ルチャブル,https://local.pokemon.jp/img/p/manhole/2490baa3ed8a260be964d24128fd0154_l.png,https://local.pokemon.jp/manhole/desc/263/,263
岩手県/岩手町（イシツブテ・メタモン）,39.968579,141.213736,岩手県,岩手町,岩手県岩手町五日市第10地割121−20,イシツブテ・メタモン,https://local.pokemon.jp/img/p/manhole/ae475fe4a3bc02e9f2c71b5b530bdec9_l.png,https://local.pokemon.jp/manhole/desc/264/,264
岩手県/紫波町（イシツブテ・アママイコ）,39.554641,141.158293,岩手県,紫波町,岩手県紫波町紫波中央駅前1丁目,イシツブテ・アママイコ,https://local.pokemon.jp/img/p/manhole/a6b1f66c93b0ccde014798e169a62ab7_l.png,https://local.pokemon.jp/manhole/desc/265/,265
岩手県/西和賀町（イシツブテ・ミノムッチ）,39.31446,140.77649,岩手県,西和賀町,岩手県西和賀町川尻40地割,イシツブテ・ミノムッチ,https://local.pokemon.jp/img/p/manhole/ad2314607356eb76b53f042d0d0c789e_l.png,https://local.pokemon.jp/manhole/desc/266/,266
岩手県/平泉町（クレセリア・ルナトーン）,38.986635,141.108167,岩手県,平泉町,岩手県平泉町平泉大沢,クレセリア・ルナトーン,https://local.pokemon.jp/img/p/manhole/8836400faac2d8e8a399cbb3d4486759_l.png,https://local.pokemon.jp/manhole/desc/267/,267
岩手県/軽米町（イシツブテ・ナゲツケサル・イワンコ）,40.322649,141.381779,岩手県,軽米町,岩手県軽米町晴山第22地割38,イシツブテ・ナゲツケサル・イワンコ,https://local.pokemon.jp/img/p/manhole/c1d89eb9977a98ddc9928fcc01679954_l.png,https://local.pokemon.jp/manhole/desc/268/,268
岩手県/九戸村（イシツブテ・ホーホー・フクスロー）,40.24854,141.416759,岩手県,九戸村,岩手県九戸村山屋第2地割28−1,イシツブテ・ホーホー・フクスロー,https://local.pokemon.jp/img/p/manhole/4cabd14c034857349d2f7dbfe2c962c8_l.png,https://local.pokemon.jp/manhole/desc/269/,269
岩手県/一戸町（イシツブテ・ヤジロン）,40.20885,141.30468,岩手県,一戸町,岩手県一戸町一戸砂森,イシツブテ・ヤジロン,https://local.pokemon.jp/img/p/manhole/f13194f5bef52f5ccefbec9e2a63045d_l.png,https://local.pokemon.jp/manhole/desc/270/,270
愛知県/豊橋市（バクフーン）,34.768863,137.393843,愛知県,豊橋市,愛知県豊橋市今橋町3,バクフーン,https://local.pokemon.jp/img/p/manhole/2b38fff3956d1bef47f96d05ce465f6f_l.png,https://local.pokemon.jp/manhole/desc/271/,271
愛知県/豊橋市（アゴジムシ・アブリボン）,34.762599,137.382958,愛知県,豊橋市,愛知県豊橋市駅前大通1-134,アゴジムシ・アブリボン,https://local.pokemon.jp/img/p/manhole/149f024197e1e9af562412f1f861e87b_l.png,https://local.pokemon.jp/manhole/desc/272/,272
愛知県/豊橋市（スターミー・デンヂムシ）,34.695901,137.413953,愛知県,豊橋市,愛知県豊橋市東七根町一の沢113-2,スターミー・デンヂムシ,https://local.pokemon.jp/img/p/manhole/81a26e93499f4f7b7646f134dceaf98e_l.png,https://local.pokemon.jp/manhole/desc/273/,273
愛知県/豊橋市（カブト・クワガノン）,34.72096,137.429448,愛知県,豊橋市,愛知県豊橋市大岩町大穴1-238,カブト・クワガノン,https://local.pokemon.jp/img/p/manhole/e42f805cec6afc6610bf3fb60fa1302e_l.png,https://local.pokemon.jp/manhole/desc/274/,274
富山県/富山市（アブソル）,36.715615,137.164366,富山県,富山市,富山県富山市呉羽町2247-3,アブソル,https://local.pokemon.jp/img/p/manhole/3d9b3d56b93482869a6a2c7474c4be35_l.png,https://local.pokemon.jp/manhole/desc/275/,275
富山県/富山市（マーイーカ）,36.70987,137.213161,富山県,富山市,富山県富山市湊入船町75-1,マーイーカ,https://local.pokemon.jp/img/p/manhole/63bb2eadb08b4706570c5bee8384d345_l.png,https://local.pokemon.jp/manhole/desc/276/,276
富山県/富山市（レディバ・キュワワー）,36.692325,137.210281,富山県,富山市,富山県富山市丸の内三丁目1-1,レディバ・キュワワー,https://local.pokemon.jp/img/p/manhole/6c44395065c204322fb25c9d622810f6_l.png,https://local.pokemon.jp/manhole/desc/277/,277
北海道/当別町（ヤバチャ・ポットデス）,43.17716187047716,141.4485234,北海道,当別町,北海道当別町当別太７７４−１１,ヤバチャ・ポットデス,https://local.pokemon.jp/img/p/manhole/b156dff51cd08f5fedd446271f2af5cb_l.png,https://local.pokemon.jp/manhole/desc/278/,278
福島県/二本松市（ラッキー・ペロッパフ）,37.593347,140.464001,福島県,二本松市,福島県二本松市安達ヶ原四丁目100番地,ラッキー・ペロッパフ,https://local.pokemon.jp/img/p/manhole/0d3e282f7e5ed43a671c095bc963353b_l.png,https://local.pokemon.jp/manhole/desc/279/,279
福島県/伊達市（ラッキー・ゴリランダー）,37.760799,140.691402,福島県,伊達市,福島県伊達市霊山町石田字中沢19-1,ラッキー・ゴリランダー,https://local.pokemon.jp/img/p/manhole/1e3c96c981ef34d92e733c0ecf2590cb_l.png,https://local.pokemon.jp/manhole/desc/280/,280
福島県/北塩原村（ラッキー・バニリッチ）,37.656148,140.089446,福島県,北塩原村,福島県北塩原村大字桧原字剣ヶ峯1093-1055,ラッキー・バニリッチ,https://local.pokemon.jp/img/p/manhole/79e3301122aa9216bddd37f23732abff_l.png,https://local.pokemon.jp/manhole/desc/281/,281
福島県/猪苗代町（ラッキー・ハヤシガメ・スワンナ）,37.538088,140.107569,福島県,猪苗代町,福島県猪苗代町大字堅田字五百苅1番地,ラッキー・ハヤシガメ・スワンナ,https://local.pokemon.jp/img/p/manhole/2472c4c2415ec4c71ca043ba35fbbd1b_l.png,https://local.pokemon.jp/manhole/desc/282/,282
福島県/会津美里町（ラッキー・ドレディア）,37.455169,139.840297,福島県,会津美里町,福島県会津美里町字宮林甲4377番地１,ラッキー・ドレディア,https://local.pokemon.jp/img/p/manhole/0f281a785f667a4ee9bac0d93500476a_l.png,https://local.pokemon.jp/manhole/desc/283/,283
福島県/西郷村（ラッキー・ウパー）,37.1399,140.15467,福島県,西郷村,福島県西郷村大字熊倉字折口原146,ラッキー・ウパー,https://local.pokemon.jp/img/p/manhole/1177578c6fc8b006e9b2e53ac8ea99cd_l.png,https://local.pokemon.jp/manhole/desc/284/,284
福島県/矢吹町（ラッキー・ファイアロー）,37.21842,140.335635,福島県,矢吹町,福島県矢吹町大池145,ラッキー・ファイアロー,https://local.pokemon.jp/img/p/manhole/2602675c5b001db979a74bfda76749aa_l.png,https://local.pokemon.jp/manhole/desc/285/,285
福島県/古殿町（ラッキー・ハピナス）,37.092891,140.529308,福島県,古殿町,福島県古殿町大字田口字平舘25番地,ラッキー・ハピナス,https://local.pokemon.jp/img/p/manhole/2b62ebefd99578ba22804a9f3d8cbd5e_l.png,https://local.pokemon.jp/manhole/desc/286/,286
福島県/三春町（ラッキー・ロズレイド）,37.4433,140.49124,福島県,三春町,福島県三春町字北町10,ラッキー・ロズレイド,https://local.pokemon.jp/img/p/manhole/726c846d91cf52f7516cf1e6401637b7_l.png,https://local.pokemon.jp/manhole/desc/287/,287
山口県/下関市（エンペルト・ホエルコ）,33.958211,130.948691,山口県,下関市,山口県下関市阿弥陀寺町6,エンペルト・ホエルコ,https://local.pokemon.jp/img/p/manhole/45b93f3bf2e0617781b54d098c85e938_l.png,https://local.pokemon.jp/manhole/desc/288/,288
山口県/下関市（チョンチー・ハリーセン）,33.954627,130.9416769,山口県,下関市,山口県下関市あるかぽーと6,チョンチー・ハリーセン,https://local.pokemon.jp/img/p/manhole/639984e012e0fb49cb6697784322f5a6_l.png,https://local.pokemon.jp/manhole/desc/289/,289
山口県/下関市（アーボ）,33.934094,130.930909,山口県,下関市,山口県下関市大字彦島字船島648,アーボ,https://local.pokemon.jp/img/p/manhole/19e9d673ad1d496efdf895ddf8b2dd9e_l.png,https://local.pokemon.jp/manhole/desc/290/,290
山口県/下関市（ドガース）,33.935457,130.929705,山口県,下関市,山口県下関市大字彦島字船島648,ドガース,https://local.pokemon.jp/img/p/manhole/1bf730cea4b0376a673d2aedefc19ce6_l.png,https://local.pokemon.jp/manhole/desc/291/,291
三重県/亀山市（ミジュマル・リオル・ドダイトス）,34.8594415,136.4474608,三重県,亀山市,三重県亀山市若山町７,ミジュマル・リオル・ドダイトス,https://local.pokemon.jp/img/p/manhole/e576fe03cd6caedf734295b94e40b1d3_l.png,https://local.pokemon.jp/manhole/desc/292/,292
三重県/朝日町（ミジュマル・エルフーン）,35.037263,136.658857,三重県,朝日町,三重県朝日町柿2340-36,ミジュマル・エルフーン,https://local.pokemon.jp/img/p/manhole/13bc40cf9c71d3585a1d7250ec072043_l.png,https://local.pokemon.jp/manhole/desc/293/,293
三重県/明和町（ミジュマル・アマカジ・フラージェス）,34.5399661,136.6184925,三重県,明和町,三重県明和町斎宮２８１１,ミジュマル・アマカジ・フラージェス,https://local.pokemon.jp/img/p/manhole/5d34514d91c421e7eb38d33dd3aa4d5e_l.png,https://local.pokemon.jp/manhole/desc/294/,294
三重県/大台町（ミジュマル・ヤナップ・ビリジオン）,34.356007,136.34766,三重県,大台町,三重県大台町薗993,ミジュマル・ヤナップ・ビリジオン,https://local.pokemon.jp/img/p/manhole/3d94649159a7193785e0d718e9419ae4_l.png,https://local.pokemon.jp/manhole/desc/295/,295
三重県/度会町（ミジュマル・マリル・ネンドール）,34.4320615,136.6313249,三重県,度会町,三重県度会町大野木１２６０,ミジュマル・マリル・ネンドール,https://local.pokemon.jp/img/p/manhole/08fd5108b2fa7f649a3b4288b51dbb81_l.png,https://local.pokemon.jp/manhole/desc/296/,296
三重県/紀宝町（ミジュマル・プロトーガ）,33.769742,136.028632,三重県,紀宝町,三重県紀宝町井田568-7,ミジュマル・プロトーガ,https://local.pokemon.jp/img/p/manhole/11b856a2714d8732b97c4de3a3eb54b3_l.png,https://local.pokemon.jp/manhole/desc/297/,297
香川県/綾川町（ヤドン・シェルダー）,34.247395,133.9327735,香川県,綾川町,香川県綾川町萱原253-7,ヤドン・シェルダー,https://local.pokemon.jp/img/p/manhole/1ec34abda217efe011cff081f744466e_l.png,https://local.pokemon.jp/manhole/desc/298/,298
岩手県/久慈市（イシツブテ・プテラ・ビーダル）,40.225538,141.781703,岩手県,久慈市,岩手県久慈市夏井町第7地割3-2,イシツブテ・プテラ・ビーダル,https://local.pokemon.jp/img/p/manhole/2542a462ffbb774db2a3a9c72fc44239_l.png,https://local.pokemon.jp/manhole/desc/299/,299
鳥取県/鳥取市（サンド・ホルビー）,35.53395,134.224478,鳥取県,鳥取市,鳥取県鳥取市浜坂1157-1,サンド・ホルビー,https://local.pokemon.jp/img/p/manhole/4ed2700dca6b81175e2041b6015883ad_l.png,https://local.pokemon.jp/manhole/desc/300/,300
石川県/金沢市（ミロカロス）,36.559162,136.661926,石川県,金沢市,石川県金沢市出羽町3-2,ミロカロス,https://local.pokemon.jp/img/p/manhole/c940415d26bf0831bbc369b7616083e1_l.png,https://local.pokemon.jp/manhole/desc/301/,301
北海道/室蘭市（ロコン・イルミーゼ）,42.313837,140.973986,北海道,室蘭市,北海道室蘭市本町2-2,ロコン・イルミーゼ,https://local.pokemon.jp/img/p/manhole/8926749b6373a6631574db18ea39adf7_l.png,https://local.pokemon.jp/manhole/desc/302/,302
北海道/北見市（ロコン）,43.75359,143.500587,北海道,北見市,北海道北見市留辺蘂町松山1-4,ロコン,https://local.pokemon.jp/img/p/manhole/5d4acfcb12a887332d63082b2bfcae8a_l.png,https://local.pokemon.jp/manhole/desc/303/,303
北海道/歌志内市（ロコン・バチュル）,43.503206,142.005914,北海道,歌志内市,北海道歌志内市字中村72番地2,ロコン・バチュル,https://local.pokemon.jp/img/p/manhole/9e92a35e490e653f3cdbc4836a94263e_l.png,https://local.pokemon.jp/manhole/desc/304/,304
北海道/木古内町（ロコン・ヒメンカ）,41.678024,140.43558,北海道,木古内町,北海道木古内町字本町338−14,ロコン・ヒメンカ,https://local.pokemon.jp/img/p/manhole/9c50492829220e1aa07a60b268ddfa1e_l.png,https://local.pokemon.jp/manhole/desc/305/,305
北海道/猿払村（ロコン・エイパム）,45.329186,142.177267,北海道,猿払村,北海道猿払村浜鬼志別214-7,ロコン・エイパム,https://local.pokemon.jp/img/p/manhole/e37f84100e487f76745f084394ae7d07_l.png,https://local.pokemon.jp/manhole/desc/306/,306
北海道/美幌町（ロコン・ハネッコ）,43.836455,144.105878,北海道,美幌町,北海道美幌町字新町3丁目97,ロコン・ハネッコ,https://local.pokemon.jp/img/p/manhole/8ec01130d0c20e3a3957f36e64315883_l.png,https://local.pokemon.jp/manhole/desc/307/,307
三重県/名張市（ミジュマル・フタチマル）,34.626212,136.088911,三重県,名張市,三重県名張市朝日町1319番地5,ミジュマル・フタチマル,https://local.pokemon.jp/img/p/manhole/be9daa94605e7406128c8aef5c159b77_l.png,https://local.pokemon.jp/manhole/desc/308/,308
三重県/木曽岬町（ミジュマル・ゴーリキー）,35.0755751,136.7318048,三重県,木曽岬町,三重県木曽岬町西対海地251番地,ミジュマル・ゴーリキー,https://local.pokemon.jp/img/p/manhole/063983c387a9eb6bb1ca4748018fb7df_l.png,https://local.pokemon.jp/manhole/desc/309/,309
三重県/東員町（ミジュマル・マネネ）,35.073792,136.581108,三重県,東員町,三重県東員町北大社1634番地,ミジュマル・マネネ,https://local.pokemon.jp/img/p/manhole/73080cfd2979568b56409864ffb75c41_l.png,https://local.pokemon.jp/manhole/desc/310/,310
神奈川県/横浜市（ピカチュウ・ライチュウ）,35.451037,139.644154,神奈川県,横浜市,神奈川県横浜市中区新港一丁目,ピカチュウ・ライチュウ,https://local.pokemon.jp/img/p/manhole/022cc45747413f97e8b5bf0873da6695_l.png,https://local.pokemon.jp/manhole/desc/311/,311
神奈川県/横浜市（ピカチュウ・ペリッパー）,35.443707,139.650904,神奈川県,横浜市,神奈川県横浜市中区山下町14-1,ピカチュウ・ペリッパー,https://local.pokemon.jp/img/p/manhole/680c8828351a0c325e338868e99f0a0a_l.png,https://local.pokemon.jp/manhole/desc/312/,312
神奈川県/横浜市（ピカチュウ・ビクティニ・ゴンべ）,35.458698,139.638331,神奈川県,横浜市,神奈川県横浜市西区みなとみらい一丁目,ピカチュウ・ビクティニ・ゴンべ,https://local.pokemon.jp/img/p/manhole/3a15037b379ab433f3c857ef5d2535eb_l.png,https://local.pokemon.jp/manhole/desc/313/,313
神奈川県/横浜市（ピカチュウ・コダック・ワンリキー）,35.453319,139.631688,神奈川県,横浜市,神奈川県横浜市西区みなとみらい2-1-1,ピカチュウ・コダック・ワンリキー,https://local.pokemon.jp/img/p/manhole/ac4ed4c5f7ff0704cd3e3bc890c7a217_l.png,https://local.pokemon.jp/manhole/desc/314/,314
福岡県/太宰府市（キルリア・メブキジカ・ヤヤコマ）,33.513335,130.515174,福岡県,太宰府市,福岡県太宰府市観世音寺4-6,キルリア・メブキジカ・ヤヤコマ,https://local.pokemon.jp/img/p/manhole/82a8e4547e0d8ae6938fc9ca802c90e0_l.png,https://local.pokemon.jp/manhole/desc/315/,315
福岡県/太宰府市（フーディン・ヤドキング・ヤレユータン）,33.519356,130.531372,福岡県,太宰府市,福岡県太宰府市宰府２丁目５,フーディン・ヤドキング・ヤレユータン,https://local.pokemon.jp/img/p/manhole/5cd7a8385c92d8774ca9fcf6577d93eb_l.png,https://local.pokemon.jp/manhole/desc/316/,316
福岡県/太宰府市（ギルガルド）,33.505199,130.516571,福岡県,太宰府市,福岡県太宰府市朱雀３丁目１３,ギルガルド,https://local.pokemon.jp/img/p/manhole/9f18ef1fb249c26b80202eabfd32d469_l.png,https://local.pokemon.jp/manhole/desc/317/,317
秋田県/秋田市（ガーディ・イワンコ・バウッツェル）,39.752642,140.061295,秋田県,秋田市,秋田県秋田市土崎港西１丁目9-1,ガーディ・イワンコ・バウッツェル,https://local.pokemon.jp/img/p/manhole/75d7b8121f07fb3655b214e5bc97fd10_l.png,https://local.pokemon.jp/manhole/desc/318/,318
秋田県/横手市（パピモッチ・ユキワラシ）,39.293561,140.545941,秋田県,横手市,秋田県横手市赤坂富ケ沢62-46,パピモッチ・ユキワラシ,https://local.pokemon.jp/img/p/manhole/77213c59ad91f8db66797f0066bc9b6e_l.png,https://local.pokemon.jp/manhole/desc/319/,319
秋田県/男鹿市（オニゴーリ・ヘルガー・グランブル）,39.88201,139.84772,秋田県,男鹿市,秋田県男鹿市船川港船川字新浜町1-19,オニゴーリ・ヘルガー・グランブル,https://local.pokemon.jp/img/p/manhole/f472a2f36f3ef6d95fc671aa272be760_l.png,https://local.pokemon.jp/manhole/desc/320/,320
秋田県/鹿角市（カラカラ）,40.181213,140.785474,秋田県,鹿角市,秋田県鹿角市花輪字新田町11-4,カラカラ,https://local.pokemon.jp/img/p/manhole/01e7a194efa8ccf1f402fd3748124ea6_l.png,https://local.pokemon.jp/manhole/desc/321/,321
秋田県/仙北市（ハクリュー・ワシボン）,39.699992,140.662631,秋田県,仙北市,秋田県仙北市田沢湖潟字ヨテコ沢４,ハクリュー・ワシボン,https://local.pokemon.jp/img/p/manhole/e2e2f0492f0c7751a975073c6ec29d61_l.png,https://local.pokemon.jp/manhole/desc/322/,322
岩手県/北上市（ゴローニャ・キリキザン）,39.281115,141.122747,岩手県,北上市,岩手県北上市川岸一丁目１（さくらＰＯＲＴ・スクエア内）,ゴローニャ・キリキザン,https://local.pokemon.jp/img/p/manhole/078ccb34c03eff812d8749fed35e679a_l.png,https://local.pokemon.jp/manhole/desc/323/,323
北海道/美瑛町,43.59198,142.46372,北海道,美瑛町,北海道美瑛町本町1丁目9番21号,,https://local.pokemon.jp/img/p/manhole/de1fad5b97b1302c551d9589cad60c01_l.png,https://local.pokemon.jp/manhole/desc/324/,324
愛媛県/松山市（アマージョ・アマカジ）,33.84106,132.77024,愛媛県,松山市,愛媛県松山市大街道2丁目 大街道アーケード,アマージョ・アマカジ,https://local.pokemon.jp/img/p/manhole/2c463a2dd4f605a830d338c012f560f1_l.png,https://local.pokemon.jp/manhole/desc/325/,325
愛媛県/松山市（シュバルゴ・ネギガナイト）,33.84426,132.74078,愛媛県,松山市,愛媛県松山市朝日ヶ丘1丁目　松山総合公園展望広場,シュバルゴ・ネギガナイト,https://local.pokemon.jp/img/p/manhole/5cfd8d62b32230e7062a428e6a8d5314_l.png,https://local.pokemon.jp/manhole/desc/326/,326
徳島県/鳴門市（スイクン）,34.224106,134.636196,徳島県,鳴門市,徳島県鳴門市鳴門町土佐泊浦字大毛82-100,スイクン,https://local.pokemon.jp/img/p/manhole/db86984d919f6b77c13d3595895d4033_l.png,https://local.pokemon.jp/manhole/desc/327/,327
徳島県/鳴門市（シードラ・キングドラ）,34.181955,134.601709,徳島県,鳴門市,徳島県鳴門市撫養町斎田字北浜157,シードラ・キングドラ,https://local.pokemon.jp/img/p/manhole/ec4704ac964ad623fcdc8e707c4cab98_l.png,https://local.pokemon.jp/manhole/desc/328/,328
徳島県/鳴門市（ニョロモ・ニョロゾ・ディグダ）,34.168084,134.616371,徳島県,鳴門市,徳島県鳴門市撫養町立岩字四枚61,ニョロモ・ニョロゾ・ディグダ,https://local.pokemon.jp/img/p/manhole/b7feef9605334785b629220d93968bd0_l.png,https://local.pokemon.jp/manhole/desc/329/,329
三重県/鈴鹿市（ミジュマル・モトトカゲ）,34.823065,136.584609,三重県,鈴鹿市,三重県鈴鹿市寺家3-10-1（※「鈴鹿市伝統産業会館」敷地内）,ミジュマル・モトトカゲ,https://local.pokemon.jp/img/p/manhole/5e7b0f7a590d610047c48864ebaa692f_l.png,https://local.pokemon.jp/manhole/desc/330/,330
三重県/川越町（ミジュマル・スバメ・アメタマ）,35.01731,136.659834,三重県,川越町,三重県川越町大字豊田283番4,ミジュマル・スバメ・アメタマ,https://local.pokemon.jp/img/p/manhole/54d0f6d4443b068cf2328ea975e6f54a_l.png,https://local.pokemon.jp/manhole/desc/331/,331
三重県/多気町（ミジュマル・グルトン・ゴマゾウ）,34.466166,136.5537339,三重県,多気町,三重県多気町五桂９９２,ミジュマル・グルトン・ゴマゾウ,https://local.pokemon.jp/img/p/manhole/3079076ac9d1bd591d3d9fed6d5490bf_l.png,https://local.pokemon.jp/manhole/desc/332/,332
三重県/松阪市（ミジュマル・ニャース）,34.578655,136.519839,三重県,松阪市,三重県松阪市外五曲町１番地１,ミジュマル・ニャース,https://local.pokemon.jp/img/p/manhole/5fd9256575a991a946731d58af9d9177_l.png,https://local.pokemon.jp/manhole/desc/333/,333
三重県/玉城町（ミジュマル・バネブー）,34.4678411,136.5876056,三重県,玉城町,三重県玉城町原４２５４−１,ミジュマル・バネブー,https://local.pokemon.jp/img/p/manhole/44742a17501610a31bcbed2c84e725ff_l.png,https://local.pokemon.jp/manhole/desc/334/,334
三重県/南伊勢町（ミジュマル・メタモン）,34.268997,136.54891,三重県,南伊勢町,三重県南伊勢町道行竈（見江島展望台）,ミジュマル・メタモン,https://local.pokemon.jp/img/p/manhole/43f237d285100171554ac6f1a0b3d5ae_l.png,https://local.pokemon.jp/manhole/desc/335/,335
福井県/勝山市（カイリュー・アーケン・ガチゴラス）,36.056787,136.492007,福井県,勝山市,福井県勝山市遅羽町比島34-2-7,カイリュー・アーケン・ガチゴラス,https://local.pokemon.jp/img/p/manhole/8911ceb39e882e398c2d3ce2c706e4cd_l.png,https://local.pokemon.jp/manhole/desc/336/,336
福井県/あわら市（カイリュー・トゲチック・ジグザグマ）,36.215613,136.234226,福井県,あわら市,福井県あわら市春宮1-13,カイリュー・トゲチック・ジグザグマ,https://local.pokemon.jp/img/p/manhole/6a7679a424968fb14c2d9d0de5761ac7_l.png,https://local.pokemon.jp/manhole/desc/337/,337
福井県/越前市（カイリュー・エレズン・ヒトツキ）,35.895286,136.198727,福井県,越前市,福井県越前市大屋町38-5-1,カイリュー・エレズン・ヒトツキ,https://local.pokemon.jp/img/p/manhole/ae37578bd4f8d92f43b00865ff9a4592_l.png,https://local.pokemon.jp/manhole/desc/338/,338
福井県/永平寺町（カイリュー・ダクマ）,36.079891,136.399312,福井県,永平寺町,福井県永平寺町清水2-21-1,カイリュー・ダクマ,https://local.pokemon.jp/img/p/manhole/82eb8843dce5a6e807c44b4d02cac7f4_l.png,https://local.pokemon.jp/manhole/desc/339/,339
福井県/高浜町（カイリュー・シャリタツ）,35.492951,135.54556,福井県,高浜町,福井県高浜町塩土第1号200番地,カイリュー・シャリタツ,https://local.pokemon.jp/img/p/manhole/40a7836c54804faf50d4fec9edf7b2cf_l.png,https://local.pokemon.jp/manhole/desc/340/,340
福井県/美浜町（カイリュー・ヒドイデ・ウミディグダ）,35.604507,135.936876,福井県,美浜町,福井県美浜町松原35-15-1,カイリュー・ヒドイデ・ウミディグダ,https://local.pokemon.jp/img/p/manhole/aa96cff87252e9d15d1050c3dfdb32b9_l.png,https://local.pokemon.jp/manhole/desc/341/,341
和歌山県/和歌山市（レントラー・アシレーヌ）,34.2300173,135.171405,和歌山県,和歌山市,和歌山県和歌山市七番丁23,レントラー・アシレーヌ,https://local.pokemon.jp/img/p/manhole/e5ee70fdd320e4d6792e7ee9890b2ace_l.png,https://local.pokemon.jp/manhole/desc/342/,342
和歌山県/高野町,34.212091,135.583052,和歌山県,高野町,和歌山県高野町高野山357,,https://local.pokemon.jp/img/p/manhole/1361a905da2d83b5309cd04822de4f32_l.png,https://local.pokemon.jp/manhole/desc/343/,343
和歌山県/白浜町（ヤンチャム・ナミイルカ）,33.675779,135.387056,和歌山県,白浜町,和歌山県白浜町堅田1474,ヤンチャム・ナミイルカ,https://local.pokemon.jp/img/p/manhole/03e9a0983c54cc918c63b4db3a0fcc5e_l.png,https://local.pokemon.jp/manhole/desc/344/,344
和歌山県/串本町（ピィ・リグレー・ジバコイル）,33.517997,135.823074,和歌山県,串本町,和歌山県串本町西向359番地,ピィ・リグレー・ジバコイル,https://local.pokemon.jp/img/p/manhole/5f390e91fa19495f13ca11ded3be39a0_l.png,https://local.pokemon.jp/manhole/desc/345/,345
和歌山県/那智勝浦町（セレビィ）,33.668973,135.902917,和歌山県,那智勝浦町,和歌山県那智勝浦町大字市野々3034-2,セレビィ,https://local.pokemon.jp/img/p/manhole/0647823671ac088cf1c2812389b1b5c9_l.png,https://local.pokemon.jp/manhole/desc/346/,346
静岡県/静岡市（フシギソウ・ムクホーク）,34.977499,138.382564,静岡県,静岡市,静岡県静岡市葵区駿府城公園１－１,フシギソウ・ムクホーク,https://local.pokemon.jp/img/p/manhole/2b3b0900b7cdfb28b04ebb960c115ec9_l.png,https://local.pokemon.jp/manhole/desc/347/,347
静岡県/浜松市（メロエッタ・シビルドン）,34.704017,137.732587,静岡県,浜松市,静岡県浜松市中央区砂山町320-2 （浜松UP-ON付近）,メロエッタ・シビルドン,https://local.pokemon.jp/img/p/manhole/e7918b84cc982219422e8d442611a8fe_l.png,https://local.pokemon.jp/manhole/desc/348/,348
静岡県/沼津市（ハンテール・ジーランス・サクラビス）,35.081579,138.854731,静岡県,沼津市,静岡県沼津市本千本１９０１−１７,ハンテール・ジーランス・サクラビス,https://local.pokemon.jp/img/p/manhole/69a0c3234cff806f768ffdd1db611679_l.png,https://local.pokemon.jp/manhole/desc/349/,349
静岡県/富士市（ファイヤー）,35.161532,138.617705,静岡県,富士市,静岡県富士市岩淵富士山 築山,ファイヤー,https://local.pokemon.jp/img/p/manhole/dd4782c37fab19b0621283b4e8253ffa_l.png,https://local.pokemon.jp/manhole/desc/350/,350
静岡県/伊豆市（ヤンチャム・ゴロンダ）,34.970285,138.92774,静岡県,伊豆市,静岡県伊豆市修善寺９４７,ヤンチャム・ゴロンダ,https://local.pokemon.jp/img/p/manhole/54b23fd2424c86f488e780a6dd137276_l.png,https://local.pokemon.jp/manhole/desc/351/,351
京都府/宇治市（ヒバニー・パッチール）,34.890627,135.809787,京都府,宇治市,京都府宇治市宇治又振,ヒバニー・パッチール,https://local.pokemon.jp/img/p/manhole/ba4d976110fe6bb12c1e0b7c0a312f7b_l.png,https://local.pokemon.jp/manhole/desc/352/,352
京都府/宇治市（チャデス・ヤバソチャ）,34.895547,135.805962,京都府,宇治市,京都府宇治市菟道丸山203-1,チャデス・ヤバソチャ,https://local.pokemon.jp/img/p/manhole/11fd9be6e92dc0be962656f7c238bef0_l.png,https://local.pokemon.jp/manhole/desc/353/,353
長崎県/長崎市（デンリュウ・トゲピー・キャモメ）,32.753712,129.86735,長崎県,長崎市,長崎県長崎市尾上町5-6,デンリュウ・トゲピー・キャモメ,https://local.pokemon.jp/img/p/manhole/8a66b9b0f3d34972338794fc1b07dacd_l.png,https://local.pokemon.jp/manhole/desc/354/,354
長崎県/佐世保市（デンリュウ・キモリ・ドレディア）,33.163987,129.724169,長崎県,佐世保市,長崎県佐世保市新港町3,デンリュウ・キモリ・ドレディア,https://local.pokemon.jp/img/p/manhole/6440346e37eff89ad1803987d49c5289_l.png,https://local.pokemon.jp/manhole/desc/355/,355
長崎県/大村市（デンリュウ）,32.933111,129.958278,長崎県,大村市,長崎県大村市植松3丁目135-5,デンリュウ,https://local.pokemon.jp/img/p/manhole/fd830fce9e6898daa219f632addce1a8_l.png,https://local.pokemon.jp/manhole/desc/356/,356
長崎県/雲仙市（デンリュウ・コータス・バクーダ）,32.74085,130.261106,長崎県,雲仙市,長崎県雲仙市小浜町雲仙320-18,デンリュウ・コータス・バクーダ,https://local.pokemon.jp/img/p/manhole/5b656d359478392214ecfa0fdfbd1cb6_l.png,https://local.pokemon.jp/manhole/desc/357/,357
長崎県/新上五島町（デンリュウ・イルカマン）,32.986402,129.112745,長崎県,新上五島町,長崎県新上五島町有川郷578-36,デンリュウ・イルカマン,https://local.pokemon.jp/img/p/manhole/2f09d6ddf8f545c9a622b7365735839f_l.png,https://local.pokemon.jp/manhole/desc/358/,358
岐阜県/各務原市（ナマズン・ドジョッチ）,35.37067,136.807773,岐阜県,各務原市,岐阜県各務原市川島笠田町1569-1,ナマズン・ドジョッチ,https://local.pokemon.jp/img/p/manhole/9b3860d131b58b6066c6d4237d0cdb6b_l.png,https://local.pokemon.jp/manhole/desc/359/,359
岐阜県/下呂市（ガマゲロゲ・ガマガル・オタマロ）,35.807771,137.242963,岐阜県,下呂市,岐阜県下呂市森1075-1,ガマゲロゲ・ガマガル・オタマロ,https://local.pokemon.jp/img/p/manhole/61f691b88819240129496347dde2c36b_l.png,https://local.pokemon.jp/manhole/desc/360/,360
岐阜県/関市（ウッウ）,35.490472,136.91225,岐阜県,関市,岐阜県関市東桜町8-1,ウッウ,https://local.pokemon.jp/img/p/manhole/e2886e52fc662f5a6a64616a5355b250_l.png,https://local.pokemon.jp/manhole/desc/361/,361
岐阜県/関ケ原町（ドドゲザン・コマタナ）,35.36402,136.46842,岐阜県,関ケ原町,岐阜県関ケ原町大字関ケ原894-95,ドドゲザン・コマタナ,https://local.pokemon.jp/img/p/manhole/e417eecf891ba9e041c137c544a8b57a_l.png,https://local.pokemon.jp/manhole/desc/362/,362
岐阜県/高山市（ヤナップ・バオップ・ヒヤップ）,36.144911,137.257235,岐阜県,高山市,岐阜県高山市本町４－１,ヤナップ・バオップ・ヒヤップ,https://local.pokemon.jp/img/p/manhole/1a58002d4c3745b11517f8eeae645f82_l.png,https://local.pokemon.jp/manhole/desc/363/,363
福井県/大野市（カイリュー）,35.9845016,136.4859314,福井県,大野市,福井県大野市城町1-5（大手門広場内）,カイリュー,https://local.pokemon.jp/img/p/manhole/4004f0ce0f42a5ef7a83d3a2e31c2849_l.png,https://local.pokemon.jp/manhole/desc/364/,364
福井県/敦賀市（カイリュー・マッギョ）,35.661865,136.074281,福井県,敦賀市,福井県敦賀市金ケ崎町4-1,カイリュー・マッギョ,https://local.pokemon.jp/img/p/manhole/f25d208e515596f3044c613f8c221a7d_l.png,https://local.pokemon.jp/manhole/desc/365/,365
福井県/南越前町（カイリュー・バタフリー）,35.831454,136.201365,福井県,南越前町,福井県南越前町牧谷39-2-2,カイリュー・バタフリー,https://local.pokemon.jp/img/p/manhole/9dcb25b385c233d8d26af0040a30d329_l.png,https://local.pokemon.jp/manhole/desc/366/,366
福井県/小浜市（カイリュー・ココガラ）,35.494981,135.741761,福井県,小浜市,福井県小浜市小浜白鬚111-1,カイリュー・ココガラ,https://local.pokemon.jp/img/p/manhole/4d9f218970b4bfd3c8d6020a4f155050_l.png,https://local.pokemon.jp/manhole/desc/367/,367
福井県/池田町（カイリュー・ハクリュー・ミニリュウ）,35.890505,136.339213,福井県,池田町,福井県池田町池田9-6-1,カイリュー・ハクリュー・ミニリュウ,https://local.pokemon.jp/img/p/manhole/9144ea3aa592e063e8c206726ea9a5a1_l.png,https://local.pokemon.jp/manhole/desc/368/,368
福島県/会津坂下町（ラッキー・カイリキー）,37.56046,139.821186,福島県,会津坂下町,福島県会津坂下町字西南町裏甲3998番地2,ラッキー・カイリキー,https://local.pokemon.jp/img/p/manhole/0f579224c6b8b65ba3e6230a35d0401d_l.png,https://local.pokemon.jp/manhole/desc/369/,369
福島県/鏡石町（ラッキー・ミルタンク・メリープ）,37.251117,140.347153,福島県,鏡石町,福島県鏡石町中央245番地,ラッキー・ミルタンク・メリープ,https://local.pokemon.jp/img/p/manhole/80227c9271b9281cb486741200d56324_l.png,https://local.pokemon.jp/manhole/desc/370/,370
福島県/棚倉町（ラッキー・ニョロトノ・カジリガメ）,37.029237,140.387151,福島県,棚倉町,福島県棚倉町大字棚倉字城跡33-7の先,ラッキー・ニョロトノ・カジリガメ,https://local.pokemon.jp/img/p/manhole/72eb2c8e38d7e27e9a4df0d1b68f7458_l.png,https://local.pokemon.jp/manhole/desc/371/,371
福島県/湯川村（ラッキー・アブリー・ラルトス）,37.55742,139.862167,福島県,湯川村,福島県湯川村大字佐野目字五丁ノ目78-1,ラッキー・アブリー・ラルトス,https://local.pokemon.jp/img/p/manhole/8365c7bd00bdd8d2c9a777fde01d9a6d_l.png,https://local.pokemon.jp/manhole/desc/372/,372
福島県/国見町（ラッキー・ピンプク・クルマユ・タブンネ）,37.872639,140.546861,福島県,国見町,福島県国見町大字藤田字日渡二18-1,ラッキー・ピンプク・クルマユ・タブンネ,https://local.pokemon.jp/img/p/manhole/be6d25642a21e17dac465e21aa08372c_l.png,https://local.pokemon.jp/manhole/desc/373/,373
福島県/広野町（ラッキー・ヤンヤンマ）,37.23297,141.0018,福島県,広野町,福島県広野町大字下北迫字大谷地原74-1,ラッキー・ヤンヤンマ,https://local.pokemon.jp/img/p/manhole/472d481f4f93133c377f8e220abc5dca_l.png,https://local.pokemon.jp/manhole/desc/374/,374
福島県/平田村（ラッキー・カプサイジ・スコヴィラン）,37.262128,140.547538,福島県,平田村,福島県平田村大字蓬田新田字蓬田岳437,ラッキー・カプサイジ・スコヴィラン,https://local.pokemon.jp/img/p/manhole/1e873a3be5ea9c32be9dc36e0e501f99_l.png,https://local.pokemon.jp/manhole/desc/375/,375
福島県/白河市（ラッキー・ダルマッカ）,37.1296,140.212974,福島県,白河市,福島県白河市郭内,ラッキー・ダルマッカ,https://local.pokemon.jp/img/p/manhole/9f523b52954278d31137611b04cae08f_l.png,https://local.pokemon.jp/manhole/desc/376/,376
島根県/浜田市（オムスター・マッギョ）,34.88924,132.07129,島根県,浜田市,島根県浜田市原井町1203-1,オムスター・マッギョ,https://local.pokemon.jp/img/p/manhole/b394f41c1a92270caadde96879540675_l.png,https://local.pokemon.jp/manhole/desc/377/,377
島根県/出雲市（ワッカネズミ・ラブカス）,35.4330088,132.629353,島根県,出雲市,島根県出雲市大社町日御碕字秘台原山1481-2,ワッカネズミ・ラブカス,https://local.pokemon.jp/img/p/manhole/3c9c0b472e5a716415b65f5fd222035c_l.png,https://local.pokemon.jp/manhole/desc/378/,378
島根県/大田市（エルレイド・サザンドラ）,35.145782,132.413128,島根県,大田市,島根県大田市仁摩町大国42-1,エルレイド・サザンドラ,https://local.pokemon.jp/img/p/manhole/24ee50a876d722099a40bd736aa424d0_l.png,https://local.pokemon.jp/manhole/desc/379/,379
島根県/安来市（ドジョッチ・バリヤード）,35.428407,133.259012,島根県,安来市,島根県安来市安来町2093-3,ドジョッチ・バリヤード,https://local.pokemon.jp/img/p/manhole/626d7178748566491c9757ab1611d4b6_l.png,https://local.pokemon.jp/manhole/desc/380/,380
島根県/隠岐の島町（デデンネ・ミミロップ）,36.17725248,133.3302467,島根県,隠岐の島町,島根県隠岐の島町岬町1889番地12,デデンネ・ミミロップ,https://local.pokemon.jp/img/p/manhole/b9231fe3c20c2f21aa3b59fa2e15d2c9_l.png,https://local.pokemon.jp/manhole/desc/381/,381
京都府/宇治市（ピカチュウ）,34.892561,135.784525,京都府,宇治市,京都府ニンテンドーミュージアム施設内（宇治市小倉町神楽田56番地）,ピカチュウ,https://local.pokemon.jp/img/p/manhole/47baa8ef80858e014f938cb01f16ab7b_l.png,https://local.pokemon.jp/manhole/desc/382/,382
三重県/桑名市（ミジュマル・ジャランゴ・ドゴーム）,35.08304,136.703006,三重県,桑名市,三重県桑名市長島町駒江漆畑270,ミジュマル・ジャランゴ・ドゴーム,https://local.pokemon.jp/img/p/manhole/34f38b612591f542f7cde91c92431fe1_l.png,https://local.pokemon.jp/manhole/desc/383/,383
三重県/尾鷲市（ミジュマル・ニャイキング）,34.06078,136.216025,三重県,尾鷲市,三重県尾鷲市向井28,ミジュマル・ニャイキング,https://local.pokemon.jp/img/p/manhole/a9212a2a3b6d5b9347985b9ccd1beb0e_l.png,https://local.pokemon.jp/manhole/desc/384/,384
三重県/いなべ市（ミジュマル・プラスル・マイナン）,35.15788,136.51618,三重県,いなべ市,三重県いなべ市北勢町阿下喜31番地,ミジュマル・プラスル・マイナン,https://local.pokemon.jp/img/p/manhole/17c4234b2ec1619a5801f73f87742e27_l.png,https://local.pokemon.jp/manhole/desc/385/,385
三重県/菰野町（ミジュマル・メェークル・ゴーゴート）,35.019585,136.506542,三重県,菰野町,三重県菰野町大字潤田1281番地,ミジュマル・メェークル・ゴーゴート,https://local.pokemon.jp/img/p/manhole/db40a95379113f5cdffb84dc02a956e7_l.png,https://local.pokemon.jp/manhole/desc/386/,386
三重県/大紀町（ミジュマル・ランクルス・ダブラン・ミルタンク）,34.297193,136.399061,三重県,大紀町,三重県大紀町崎２１５４−１,ミジュマル・ランクルス・ダブラン・ミルタンク,https://local.pokemon.jp/img/p/manhole/f435d5251cfe91fa5532d1ab26ca47e4_l.png,https://local.pokemon.jp/manhole/desc/387/,387
三重県/紀北町（ミジュマル・ママンボウ）,34.216869,136.346376,三重県,紀北町,三重県紀北町東長島２４１０−７３,ミジュマル・ママンボウ,https://local.pokemon.jp/img/p/manhole/de7b40100ef8846319095eeda71c4089_l.png,https://local.pokemon.jp/manhole/desc/388/,388
三重県/御浜町（ミジュマル・パチリス）,33.80391,136.04345,三重県,御浜町,三重県御浜町大字阿田和４９２６番地５,ミジュマル・パチリス,https://local.pokemon.jp/img/p/manhole/598c154d6772e0df2a69b8aa78f442ef_l.png,https://local.pokemon.jp/manhole/desc/389/,389
高知県/香美市（ヌオー・コマタナ・モノズ）,33.695608,133.874784,高知県,香美市,高知県香美市物部町大栃872番地2,ヌオー・コマタナ・モノズ,https://local.pokemon.jp/img/p/manhole/9b80e14141a8c41fc519beaa1bde69f8_l.png,https://local.pokemon.jp/manhole/desc/390/,390
高知県/奈半利町（ヌオー・ノクタス・サニーゴ）,33.425249,134.017781,高知県,奈半利町,高知県奈半利町乙4779-3,ヌオー・ノクタス・サニーゴ,https://local.pokemon.jp/img/p/manhole/9326f1ab7b66840ba918c10e7c8478b2_l.png,https://local.pokemon.jp/manhole/desc/391/,391
高知県/大豊町（ヌオー・チルタリス）,33.749067,133.684166,高知県,大豊町,高知県大豊町中村大王4037-25,ヌオー・チルタリス,https://local.pokemon.jp/img/p/manhole/05938aa1104a2226b71dbc2b1e6de194_l.png,https://local.pokemon.jp/manhole/desc/392/,392
高知県/日高村（ヌオー・シズクモ・ヤンヤンマ）,33.5335561,133.3712561,高知県,日高村,高知県日高村本郷284-2,ヌオー・シズクモ・ヤンヤンマ,https://local.pokemon.jp/img/p/manhole/4ac408636042cae5deaff75207b9bf30_l.png,https://local.pokemon.jp/manhole/desc/393/,393
高知県/津野町（ヌオー・リリーラ・ピィ）,33.476856,133.004184,高知県,津野町,高知県津野町芳生野乙4921-22,ヌオー・リリーラ・ピィ,https://local.pokemon.jp/img/p/manhole/7fc86d8a52fce05b93042fe1a127342a_l.png,https://local.pokemon.jp/manhole/desc/394/,394
高知県/大月町（ヌオー・フィオネ・ケイコウオ）,32.767739,132.627259,高知県,大月町,高知県大月町柏島600番地,ヌオー・フィオネ・ケイコウオ,https://local.pokemon.jp/img/p/manhole/31ea84ec8f10061d987ef8d7fc15c1da_l.png,https://local.pokemon.jp/manhole/desc/395/,395
高知県/三原村（ヌオー・ドオー）,32.922536,132.83982,高知県,三原村,高知県三原村宮ノ川,ヌオー・ドオー,https://local.pokemon.jp/img/p/manhole/207a12127b5a99f94f0fa04d69543a4a_l.png,https://local.pokemon.jp/manhole/desc/396/,396
岩手県/北上市（イシツブテ・オーガポン・カミッチュ）,39.27362,141.1282,岩手県,北上市,岩手県北上市立花13地割（展勝地公園）,イシツブテ・オーガポン・カミッチュ,https://local.pokemon.jp/img/p/manhole/74be692413e89b4fec7143be21b89187_l.png,https://local.pokemon.jp/manhole/desc/397/,397
岩手県/盛岡市（イシツブテ・ウソッキー）,39.846667,141.173111,岩手県,盛岡市,岩手県盛岡市渋民80番地42,イシツブテ・ウソッキー,https://local.pokemon.jp/img/p/manhole/d0ba56dc0960526c6c25a5e6bfaf3d09_l.png,https://local.pokemon.jp/manhole/desc/398/,398
山形県/山形市（ポポッコ・ラフレシア・ドレディア）,38.248477,140.325854,山形県,山形市,山形県山形市双葉町1-2-38,ポポッコ・ラフレシア・ドレディア,https://local.pokemon.jp/img/p/manhole/d83e17697e33d9ed20040ea92890fa38_l.png,https://local.pokemon.jp/manhole/desc/399/,399
山形県/寒河江市（チェリム・チェリンボ）,38.363842,140.26637,山形県,寒河江市,山形県寒河江市山西甲1269,チェリム・チェリンボ,https://local.pokemon.jp/img/p/manhole/c09268e65f3623546d6818d5ad41f872_l.png,https://local.pokemon.jp/manhole/desc/400/,400
山形県/大蔵村（ランプラー・テールナー）,38.611083,140.169653,山形県,大蔵村,山形県大蔵村南山４５１－２,ランプラー・テールナー,https://local.pokemon.jp/img/p/manhole/756596314ba4cb80fcddec5aacd40fa7_l.png,https://local.pokemon.jp/manhole/desc/401/,401
山形県/小国町（クマシュン・ツンベアー・アルクジラ）,38.072713,139.73128,山形県,小国町,山形県小国町小国小坂町616,クマシュン・ツンベアー・アルクジラ,https://local.pokemon.jp/img/p/manhole/af8622d0fb9c0dcd8ae7662c09346e5f_l.png,https://local.pokemon.jp/manhole/desc/402/,402
山形県/鶴岡市（ブルンゲル・ドククラゲ・メノクラゲ・プルリル）,38.721151,139.684635,山形県,鶴岡市,山形県鶴岡市由良2-14,ブルンゲル・ドククラゲ・メノクラゲ・プルリル,https://local.pokemon.jp/img/p/manhole/682832fc77641227f5f45a0ba883c392_l.png,https://local.pokemon.jp/manhole/desc/403/,403
愛知県/名古屋市（コイキング・ネッコアラ）,35.1831277,136.9045981,愛知県,名古屋市,愛知県名古屋市中区二の丸１番2・3号,コイキング・ネッコアラ,https://local.pokemon.jp/img/p/manhole/1e8ca4125f1e840c139362bef0854ae6_l.png,https://local.pokemon.jp/manhole/desc/404/,404
愛知県/瀬戸市（ニャヒート・ブーバー）,35.2257073,137.1008385,愛知県,瀬戸市,愛知県瀬戸市蔵所町1-1,ニャヒート・ブーバー,https://local.pokemon.jp/img/p/manhole/f11b36b1639166804131d9e464fac8d9_l.png,https://local.pokemon.jp/manhole/desc/405/,405
愛知県/常滑市（ピジョット）,34.88566,136.8231592,愛知県,常滑市,愛知県常滑市りんくう町２丁目　りんくうビーチ,ピジョット,https://local.pokemon.jp/img/p/manhole/9e73d3dac08706213606acfa5508d3f2_l.png,https://local.pokemon.jp/manhole/desc/406/,406
愛知県/刈谷市（タツベイ・ジュカイン・キバゴ）,35.04095,137.0481,愛知県,刈谷市,愛知県刈谷市東境町吉野55,タツベイ・ジュカイン・キバゴ,https://local.pokemon.jp/img/p/manhole/b74fd1d13c5402743ee665a0b7b52adc_l.png,https://local.pokemon.jp/manhole/desc/407/,407
愛知県/西尾市（マホイップ・ゴクリン）,34.867221,137.048298,愛知県,西尾市,愛知県西尾市錦城町233,マホイップ・ゴクリン,https://local.pokemon.jp/img/p/manhole/b8558e0a74714d9f0519a90cbffb2bd8_l.png,https://local.pokemon.jp/manhole/desc/408/,408
茨城県/神栖市（マラカッチ・オトシドリ）,35.897341,140.649095,茨城県,神栖市,茨城県神栖市木崎1203-9,マラカッチ・オトシドリ,https://local.pokemon.jp/img/p/manhole/b7ce2257a00adad91661a580d6305fd4_l.png,https://local.pokemon.jp/manhole/desc/409/,409
茨城県/筑西市（グレッグル・ハラバリー）,36.322445,139.994116,茨城県,筑西市,茨城県筑西市川澄１８５０,グレッグル・ハラバリー,https://local.pokemon.jp/img/p/manhole/077e657dad03480b92569da298fdd44b_l.png,https://local.pokemon.jp/manhole/desc/410/,410
茨城県/つくば市（レックウザ）,36.08581,140.110839,茨城県,つくば市,茨城県つくば市吾妻2-7-5,レックウザ,https://local.pokemon.jp/img/p/manhole/9849d1409331da248994adbdfce3509b_l.png,https://local.pokemon.jp/manhole/desc/411/,411
茨城県/常陸太田市（ボーマンダ・ルチャブル）,36.510672,140.525632,茨城県,常陸太田市,茨城県常陸太田市下河合町1016-1,ボーマンダ・ルチャブル,https://local.pokemon.jp/img/p/manhole/22efba09e43fc13bf4834b0f6157cde5_l.png,https://local.pokemon.jp/manhole/desc/412/,412
茨城県/水戸市（ジャローダ・ナットレイ・ハーデリア）,36.372273,140.452358,茨城県,水戸市,茨城県水戸市見川1-1251,ジャローダ・ナットレイ・ハーデリア,https://local.pokemon.jp/img/p/manhole/223f1b131033a42ab2891fecab366ef0_l.png,https://local.pokemon.jp/manhole/desc/413/,413
三重県/鳥羽市（ミジュマル）,34.490787,136.844965,三重県,鳥羽市,三重県鳥羽市鳥羽一丁目地内,ミジュマル,https://local.pokemon.jp/img/p/manhole/a874515ca910cf36ecbd58a130bbb89d_l.png,https://local.pokemon.jp/manhole/desc/414/,414
三重県/鈴鹿市（ミジュマル）,34.852227,136.538663,三重県,鈴鹿市,三重県鈴鹿市住吉町地内,ミジュマル,https://local.pokemon.jp/img/p/manhole/7f1168d3590ddc36c4964cd276776c02_l.png,https://local.pokemon.jp/manhole/desc/415/,415
福井県/坂井市（カイリュー・マフィティフ）,36.161806,136.333313,福井県,坂井市,福井県坂井市丸岡町山口64-31,カイリュー・マフィティフ,https://local.pokemon.jp/img/p/manhole/292964dec0cb7ddb638e94dcd4388ad1_l.png,https://local.pokemon.jp/manhole/desc/416/,416
福井県/福井市（カイリュー・ジャラランガ）,36.061483,136.223635,福井県,福井市,福井県福井市手寄1丁目1　（JR福井駅東口）,カイリュー・ジャラランガ,https://local.pokemon.jp/img/p/manhole/01f288197426c4ecd10018babaf52ce1_l.png,https://local.pokemon.jp/manhole/desc/417/,417
福井県/おおい町（カイリュー・ケーシィ・ニャオニクス）,35.48179,135.62838,福井県,おおい町,福井県おおい町成海1-1-1,カイリュー・ケーシィ・ニャオニクス,https://local.pokemon.jp/img/p/manhole/bc3a6278d1b847a6c3ee8d6a320303c8_l.png,https://local.pokemon.jp/manhole/desc/418/,418
福井県/鯖江市（カイリュー・モルペコ・サッチムシ）,35.950098,136.181116,福井県,鯖江市,福井県鯖江市桜町3丁目8-1,カイリュー・モルペコ・サッチムシ,https://local.pokemon.jp/img/p/manhole/602c4f607f16ab68a51dda3da2b63bac_l.png,https://local.pokemon.jp/manhole/desc/419/,419
福井県/若狭町（カイリュー・コアルヒー・クワッス）,35.461441,135.860204,福井県,若狭町,福井県若狭町市場18-18,カイリュー・コアルヒー・クワッス,https://local.pokemon.jp/img/p/manhole/a24ce3b6e6ded0b78634c88d850a1f93_l.png,https://local.pokemon.jp/manhole/desc/420/,420
福井県/越前町（カイリュー・プクリン）,35.93468,136.05872,福井県,越前町,福井県越前町小曽原120-60,カイリュー・プクリン,https://local.pokemon.jp/img/p/manhole/a4b9ed8fd6f982a51e508d614e8bc9c7_l.png,https://local.pokemon.jp/manhole/desc/421/,421
沖縄県/北谷町（ガーディ）,26.315733,127.753613,沖縄県,北谷町,沖縄県北谷町美浜20番,ガーディ,https://local.pokemon.jp/img/p/manhole/5607d35bb32e267fd37f06948e578902_l.png,https://local.pokemon.jp/manhole/desc/422/,422
沖縄県/渡嘉敷村（ガーディ・ルリリ・ヤトウモリ）,26.14914,127.34735,沖縄県,渡嘉敷村,沖縄県渡嘉敷村阿波連1393－1,ガーディ・ルリリ・ヤトウモリ,https://local.pokemon.jp/img/p/manhole/623f50d4f0f1212ad2d8e5bebf791b51_l.png,https://local.pokemon.jp/manhole/desc/423/,423
沖縄県/座間味村（ガーディ・ホエルコ）,26.227878,127.301424,沖縄県,座間味村,沖縄県座間味村座間味165番地,ガーディ・ホエルコ,https://local.pokemon.jp/img/p/manhole/ad1c1aa56457a1e78f7b08da82f89868_l.png,https://local.pokemon.jp/manhole/desc/424/,424
沖縄県/久米島町（ガーディ・ウデッポウ）,26.373985,126.788928,沖縄県,久米島町,沖縄県久米島町阿嘉530-41,ガーディ・ウデッポウ,https://local.pokemon.jp/img/p/manhole/e4ee32e72e4e30c41254652f0b1383bf_l.png,https://local.pokemon.jp/manhole/desc/425/,425
岩手県/葛巻町（ミルタンク・マホミル）,39.984472,141.339917,岩手県,葛巻町,岩手県葛巻町葛巻39-159-3,ミルタンク・マホミル,https://local.pokemon.jp/img/p/manhole/e0af9a218a104af4f32e4c65f047155a_l.png,https://local.pokemon.jp/manhole/desc/426/,426
長崎県/島原市（デンリュウ・ヒラヒナ・タマザラシ）,32.790222,130.370593,長崎県,島原市,長崎県島原市片町577-1,デンリュウ・ヒラヒナ・タマザラシ,https://local.pokemon.jp/img/p/manhole/9bc84a22210b01d1330da1a3d459e5d8_l.png,https://local.pokemon.jp/manhole/desc/427/,427
長崎県/壱岐市（デンリュウ・ノズパス）,33.81196878,129.6557033,長崎県,壱岐市,長崎県壱岐市郷ノ浦町新田触870-3,デンリュウ・ノズパス,https://local.pokemon.jp/img/p/manhole/e126c5112eda03d677eff9b92cab10cc_l.png,https://local.pokemon.jp/manhole/desc/428/,428
長崎県/時津町（デンリュウ・ホーホー・ゴローン・オタチ）,32.831977,129.849052,長崎県,時津町,長崎県時津町浦郷436-8,デンリュウ・ホーホー・ゴローン・オタチ,https://local.pokemon.jp/img/p/manhole/fcac6f042fa67019abd2dca48d815440_l.png,https://local.pokemon.jp/manhole/desc/429/,429
長崎県/東彼杵町（デンリュウ・ジュペッタ・ワタッコ）,33.0357304,129.9194868,長崎県,東彼杵町,長崎県東彼杵町彼杵宿郷４７２,デンリュウ・ジュペッタ・ワタッコ,https://local.pokemon.jp/img/p/manhole/7e0358daa2f0bd5c89903de1a57cecf8_l.png,https://local.pokemon.jp/manhole/desc/430/,430
長崎県/佐々町（デンリュウ・シビシラス・シビビール）,33.254897,129.6589353,長崎県,佐々町,長崎県佐々町鴨川免189-1,デンリュウ・シビシラス・シビビール,https://local.pokemon.jp/img/p/manhole/41ee5c22850c88cabf369c70302bd777_l.png,https://local.pokemon.jp/manhole/desc/431/,431
高知県/室戸市（ヌオー・コジオ）,33.325698,134.195181,高知県,室戸市,高知県室戸市室戸岬町533-2,ヌオー・コジオ,https://local.pokemon.jp/img/p/manhole/d9bd03a57b3501b93226b157abadbb2d_l.png,https://local.pokemon.jp/manhole/desc/432/,432
高知県/安芸市（ヌオー・ホーホー）,33.5043207,133.9065445,高知県,安芸市,高知県安芸市矢ノ丸4丁目2-30,ヌオー・ホーホー,https://local.pokemon.jp/img/p/manhole/551bad185b3f9a9d17c5f6f40d7febfc_l.png,https://local.pokemon.jp/manhole/desc/433/,433
高知県/須崎市（ヌオー・ブイゼル・フローゼル）,33.39238098,133.2926446,高知県,須崎市,高知県須崎市原町1丁目9-11,ヌオー・ブイゼル・フローゼル,https://local.pokemon.jp/img/p/manhole/c4bd71337c16e241b3b9203a89f970e8_l.png,https://local.pokemon.jp/manhole/desc/434/,434
高知県/宿毛市（ヌオー・ウパー）,32.915754,132.712575,高知県,宿毛市,高知県宿毛市小筑紫町田ノ浦１２４４−１０,ヌオー・ウパー,https://local.pokemon.jp/img/p/manhole/d0827223105f6648da72d7595907c786_l.png,https://local.pokemon.jp/manhole/desc/435/,435
高知県/香南市（ヌオー・シビシラス）,33.534367,133.75346,高知県,香南市,高知県香南市夜須町坪井,ヌオー・シビシラス,https://local.pokemon.jp/img/p/manhole/c1359eed647d0b370136b487d0854b70_l.png,https://local.pokemon.jp/manhole/desc/436/,436
高知県/東洋町（ヌオー・マンタイン）,33.543168839356774,134.29495896722574,高知県,東洋町,高知県東洋町白浜８８−１,ヌオー・マンタイン,https://local.pokemon.jp/img/p/manhole/299ea9629aaed7f41bf1554d2a09b05a_l.png,https://local.pokemon.jp/manhole/desc/437/,437
北海道/札幌市（ロコン・ケッキング）,42.96615624,141.1669585,北海道,札幌市,北海道札幌市南区定山渓温泉東３丁目212,ロコン・ケッキング,https://local.pokemon.jp/img/p/manhole/531b4a4ba848285085f50bb59b5a7a61_l.png,https://local.pokemon.jp/manhole/desc/438/,438
北海道/砂川市（ロコン・ペロリーム）,43.493037,141.907367,北海道,砂川市,北海道砂川市西１条北２丁目１番２０号,ロコン・ペロリーム,https://local.pokemon.jp/img/p/manhole/d6b485b2485506fb3022e809a4c2876c_l.png,https://local.pokemon.jp/manhole/desc/439/,439
北海道/由仁町（ロコン・ヤクデ）,43.01186,141.78697,北海道,由仁町,北海道由仁町東栄87-1,ロコン・ヤクデ,https://local.pokemon.jp/img/p/manhole/7dd1c2ca558b28c070cf52b3cf98f68d_l.png,https://local.pokemon.jp/manhole/desc/440/,440
北海道/厚沢部町（ロコン・ミノマダム）,41.916775,140.216556,北海道,厚沢部町,北海道厚沢部町緑町72-1,ロコン・ミノマダム,https://local.pokemon.jp/img/p/manhole/00de3645760fd45cc9adfdb0967ac056_l.png,https://local.pokemon.jp/manhole/desc/441/,441
北海道/幌延町（ロコン・フラベベ）,45.040817,141.8612,北海道,幌延町,北海道幌延町北進３９８－１,ロコン・フラベベ,https://local.pokemon.jp/img/p/manhole/c109d6f01a11e1abe9df06af4196d73c_l.png,https://local.pokemon.jp/manhole/desc/442/,442
北海道/津別町（ロコン）,43.69494344,144.029683,北海道,津別町,北海道津別町共和127番地1,ロコン,https://local.pokemon.jp/img/p/manhole/fa60bb5908c2b1825c3022acdc8aac53_l.png,https://local.pokemon.jp/manhole/desc/443/,443
北海道/湧別町（ロコン・アブリー）,44.18466,143.594848,北海道,湧別町,北海道湧別町中湧別中町3020番地の1,ロコン・アブリー,https://local.pokemon.jp/img/p/manhole/80d67fcbafef57060bff53c8de34985b_l.png,https://local.pokemon.jp/manhole/desc/444/,444
北海道/別海町（トドグラー）,43.533265,145.23697,北海道,別海町,北海道別海町尾岱沼5-27,トドグラー,https://local.pokemon.jp/img/p/manhole/63d1b0ab4923f1c3cd03a928dd57d7b5_l.png,https://local.pokemon.jp/manhole/desc/445/,445
沖縄県/那覇市（ガーディ）,26.22005,127.71657,沖縄県,那覇市,沖縄県那覇市首里池端町18,ガーディ,https://local.pokemon.jp/img/p/manhole/6ea8d929a518be32eb78754371390526_l.png,https://local.pokemon.jp/manhole/desc/446/,446
宮城県/加瀬沼公園（ラプラス・スワンナ・タマンタ）,38.311641,140.983236,宮城県,加瀬沼公園,宮城県加瀬沼公園内（宮城県宮城郡利府町加瀬新堤下）,ラプラス・スワンナ・タマンタ,https://local.pokemon.jp/img/p/manhole/416bb8faf8d814dec25f300d3bf43db9_l.png,https://local.pokemon.jp/manhole/desc/447/,447
東京都/稲城市（ピカチュウ・イーブイ）,35.62637,139.521513,東京都,稲城市,東京都ポケパーク カントー敷地内（東京都稲城市矢野口4015-1 よみうりランド遊園地内）,ピカチュウ・イーブイ,https://local.pokemon.jp/img/p/manhole/174a9314ce4371b180c70d3f43232c4e_l.png,https://local.pokemon.jp/manhole/desc/448/,448
高知県/高知市（ヌオー・トサキント）,33.56701662,133.5431367,高知県,高知市,高知県高知市北本町2-10-17,ヌオー・トサキント,https://local.pokemon.jp/img/p/manhole/135ebfca7dbcfd5ee42f882ac1a40c00_l.png,https://local.pokemon.jp/manhole/desc/449/,449
高知県/土佐清水市（ヌオー・カラナクシ）,32.791142,132.862367,高知県,土佐清水市,高知県土佐清水市三崎4032,ヌオー・カラナクシ,https://local.pokemon.jp/img/p/manhole/7132cbb8ec49ce09caf657bdcd671cb7_l.png,https://local.pokemon.jp/manhole/desc/450/,450
高知県/安田町（ヌオー・メタモン）,33.47986,133.99983,高知県,安田町,高知県安田町大字正弘566番地,ヌオー・メタモン,https://local.pokemon.jp/img/p/manhole/da28cb8d917d2b68003b00b5e3e7af47_l.png,https://local.pokemon.jp/manhole/desc/451/,451
高知県/本山町（ヌオー・アメタマ・アメモース）,33.75877,133.59448,高知県,本山町,高知県本山町本山2133-1,ヌオー・アメタマ・アメモース,https://local.pokemon.jp/img/p/manhole/e877c3d67547cbef003359f4e595c2ed_l.png,https://local.pokemon.jp/manhole/desc/452/,452
高知県/仁淀川町（ヌオー・メッソン）,33.561104,133.129433,高知県,仁淀川町,高知県仁淀川町名野川456,ヌオー・メッソン,https://local.pokemon.jp/img/p/manhole/3dda90802522e2534fe7342352ec6681_l.png,https://local.pokemon.jp/manhole/desc/453/,453
福島県/須賀川市（ラッキー・マフォクシー）,37.291536,140.382947,福島県,須賀川市,福島県須賀川市愛宕山5,ラッキー・マフォクシー,https://local.pokemon.jp/img/p/manhole/31610e9bff9bfc8fdc64683e1e1bc75f_l.png,https://local.pokemon.jp/manhole/desc/454/,454
福島県/天栄村（ラッキー・イエッサン）,37.243406,140.243722,福島県,天栄村,福島県天栄村大字大里字天房41-2,ラッキー・イエッサン,https://local.pokemon.jp/img/p/manhole/fc5fefcde24d0eaf98672ed0dc0e7abd_l.png,https://local.pokemon.jp/manhole/desc/455/,455
福島県/下郷町（ラッキー・ハリマロン・カモネギ・チリーン）,37.203534,139.916146,福島県,下郷町,福島県下郷町大字南倉沢字木賊844番地188,ラッキー・ハリマロン・カモネギ・チリーン,https://local.pokemon.jp/img/p/manhole/5d9b7729ce8952e05c6fdedcbf82dcce_l.png,https://local.pokemon.jp/manhole/desc/456/,456
福島県/西会津町（ラッキー・マシェード・ピクシー）,37.585568,139.642677,福島県,西会津町,福島県西会津町野沢字下條乙1969-26,ラッキー・マシェード・ピクシー,https://local.pokemon.jp/img/p/manhole/e7dc3b5a9cbd1d327172ad540f6c6b08_l.png,https://local.pokemon.jp/manhole/desc/457/,457
福島県/泉崎村（ラッキー・ヤジロン・アオガラス）,37.157384,140.314605,福島県,泉崎村,福島県泉崎村泉崎笹立山12-7,ラッキー・ヤジロン・アオガラス,https://local.pokemon.jp/img/p/manhole/24d020c935a2ad0492a860df592cb9f2_l.png,https://local.pokemon.jp/manhole/desc/458/,458
福島県/鮫川村（ラッキー・サメハダー・フカマル）,37.040242,140.50677,福島県,鮫川村,福島県鮫川村大字赤阪中野字巡ヶ作116番地,ラッキー・サメハダー・フカマル,https://local.pokemon.jp/img/p/manhole/b530a464344989e265f4a1013337ab42_l.png,https://local.pokemon.jp/manhole/desc/459/,459
福島県/浅川町（ラッキー・ピンプク・バオップ）,37.0802942,140.4146001,福島県,浅川町,福島県浅川町本町西裏（JR磐城浅川駅前広場）,ラッキー・ピンプク・バオップ,https://local.pokemon.jp/img/p/manhole/e2e9702c4eaa677732ff81abb89aa1c7_l.png,https://local.pokemon.jp/manhole/desc/460/,460
福島県/小野町（ラッキー・ゴチミル・ブリムオン）,37.279216,140.633912,福島県,小野町,福島県小野町大字小野新町字中通2,ラッキー・ゴチミル・ブリムオン,https://local.pokemon.jp/img/p/manhole/8c6ff25fd14baba503e78e26654edac2_l.png,https://local.pokemon.jp/manhole/desc/461/,461
福島県/大熊町（ラッキー・ヒメグマ・キテルグマ・ヌイコグマ）,37.4099576,140.983206,福島県,大熊町,福島県大熊町下野上大野116-5,ラッキー・ヒメグマ・キテルグマ・ヌイコグマ,https://local.pokemon.jp/img/p/manhole/80d89bd52e1edb0d93f1a0cdc06d4757_l.png,https://local.pokemon.jp/manhole/desc/462/,462
岩手県/奥州市（イシツブテ・ガブリアス・カジッチュ）,39.138288,141.137353,岩手県,奥州市,岩手県奥州市水沢西町1番1号,イシツブテ・ガブリアス・カジッチュ,https://local.pokemon.jp/img/p/manhole/d769d590f73bfec332de82f0a5dd7d06_l.png,https://local.pokemon.jp/manhole/desc/463/,463
岩手県/雫石町（イシツブテ・イワンコ・ウールー）,39.706964,140.874287,岩手県,雫石町,岩手県雫石町橋場坂本118-10,イシツブテ・イワンコ・ウールー,https://local.pokemon.jp/img/p/manhole/05aa91a5c54fced8bdf19152189ccd66_l.png,https://local.pokemon.jp/manhole/desc/464/,464
岩手県/矢巾町（イシツブテ・キマワリ）,39.6135292,141.1498184,岩手県,矢巾町,岩手県矢巾町駅東1丁目55,イシツブテ・キマワリ,https://local.pokemon.jp/img/p/manhole/28333d9283ea549934e01301b4fe5b97_l.png,https://local.pokemon.jp/manhole/desc/465/,465
岩手県/金ヶ崎町（ブロロン・メルタン）,39.200006,141.112971,岩手県,金ヶ崎町,岩手県金ケ崎町西根伊勢分25番地7,ブロロン・メルタン,https://local.pokemon.jp/img/p/manhole/bc9b6ce686085c3e074bd69dc23dee60_l.png,https://local.pokemon.jp/manhole/desc/466/,466
岩手県/盛岡市（イシツブテ・イワンコ・ルガルガン）,39.694005,141.128421,岩手県,盛岡市,岩手県盛岡市本宮字蛇屋敷地内,イシツブテ・イワンコ・ルガルガン,https://local.pokemon.jp/img/p/manhole/950280bab6a52375f60a30456007e6e9_l.png,https://local.pokemon.jp/manhole/desc/467/,467
石川県/七尾市（ニョロトノ・ギャラドス・ニョロモ）,37.087801,136.923564,石川県,七尾市,石川県七尾市和倉町ひばり1丁目1番地,ニョロトノ・ギャラドス・ニョロモ,https://local.pokemon.jp/img/p/manhole/f1da1d7cec53987ff936da3fbd11f18f_l.png,https://local.pokemon.jp/manhole/desc/468/,468
石川県/輪島市（ダルマッカ・ゲッコウガ）,37.389147,136.906156,石川県,輪島市,石川県輪島市河井町20-1-131,ダルマッカ・ゲッコウガ,https://local.pokemon.jp/img/p/manhole/5bde37f1ca046581e26582ecfca9bdcd_l.png,https://local.pokemon.jp/manhole/desc/469/,469
石川県/珠洲市（ラブカス・ニンフィア）,37.39454,137.240367,石川県,珠洲市,石川県珠洲市宝立町鵜島二47-1,ラブカス・ニンフィア,https://local.pokemon.jp/img/p/manhole/13e5c3a4028ded1bfa96f4b816bfe631_l.png,https://local.pokemon.jp/manhole/desc/470/,470
石川県/志賀町（カイデン・サクラビス）,37.139152,136.724847,石川県,志賀町,石川県志賀町富来領家町,カイデン・サクラビス,https://local.pokemon.jp/img/p/manhole/5a893a52dcdef186d0629ca2c52a7546_l.png,https://local.pokemon.jp/manhole/desc/471/,471
石川県/穴水町（カビゴン・プラスル・マイナン）,37.228298,136.905007,石川県,穴水町,石川県穴水町字大町ト33,カビゴン・プラスル・マイナン,https://local.pokemon.jp/img/p/manhole/87a3fd9365e386e00d23128242ee50b4_l.png,https://local.pokemon.jp/manhole/desc/472/,472
石川県/能登町（ロゼリア・ハスボー）,37.333975,137.138718,石川県,能登町,石川県能登町字上町ロ部1-1,ロゼリア・ハスボー,https://local.pokemon.jp/img/p/manhole/e839dd22163b193f2e7d8c3db59ee6ec_l.png,https://local.pokemon.jp/manhole/desc/473/,473
宮城県/仙台市（ラプラス・チョンチー・ホエルコ・ウミディグダ）,38.182602,140.956528,宮城県,仙台市,宮城県仙台市若林区藤塚地内　海岸公園（藤塚地区）,ラプラス・チョンチー・ホエルコ・ウミディグダ,https://local.pokemon.jp/img/p/manhole/0dfe96c54ef7f6271d17c9ea3fb43e65_l.png,https://local.pokemon.jp/manhole/desc/474/,474
石川県/輪島市（タツベイ・ボーマンダ）,37.295752,136.957244,石川県,輪島市,石川県輪島市・のと里山空港敷地内（輪島市三井町洲衛10-11-1）,タツベイ・ボーマンダ,https://local.pokemon.jp/img/p/manhole/ebbdbee7f35498be1af93b5dc2f8e6c2_l.png,https://local.pokemon.jp/manhole/desc/475/,475
長崎県/諫早市（デンリュウ・メタグロス）,32.851951,130.042015,長崎県,諫早市,長崎県諫早市永昌東町2,デンリュウ・メタグロス,https://local.pokemon.jp/img/p/manhole/9ad3148fd75c57b00c5e66503d73af38_l.png,https://local.pokemon.jp/manhole/desc/476/,476
長崎県/対馬市（デンリュウ・レパルダス・キノガッサ）,34.202685,129.289139,長崎県,対馬市,長崎県対馬市厳原町今屋敷672-1,デンリュウ・レパルダス・キノガッサ,https://local.pokemon.jp/img/p/manhole/7cab4fbef67520a2aa892e78044ba411_l.png,https://local.pokemon.jp/manhole/desc/477/,477
長崎県/五島市（デンリュウ・モココ・メリープ）,32.641898,128.847861,長崎県,五島市,長崎県五島市野々切町1333-3,デンリュウ・モココ・メリープ,https://local.pokemon.jp/img/p/manhole/1fd094dccc46d6d5a016ab6fc88a5ebf_l.png,https://local.pokemon.jp/manhole/desc/478/,478
長崎県/西海市（デンリュウ・タイカイデン・トリトドン）,33.036768,129.637485,長崎県,西海市,長崎県西海市大島町1374-4,デンリュウ・タイカイデン・トリトドン,https://local.pokemon.jp/img/p/manhole/4543d040f87f6f6edbc37f69e73abde7_l.png,https://local.pokemon.jp/manhole/desc/479/,479
長崎県/波佐見町（デンリュウ・カイロス・ハッサム）,33.141048,129.910858,長崎県,波佐見町,長崎県波佐見町井石郷2255-2,デンリュウ・カイロス・ハッサム,https://local.pokemon.jp/img/p/manhole/273a40e9db77b08bc4a8aadd8d8f5d6d_l.png,https://local.pokemon.jp/manhole/desc/480/,480
