[
 {
  "manhole_no": "1",
  "pref_name": "鹿児島県",
  "city": "指宿市",
  "address": "鹿児島県指宿市湊1丁目1-1",
  "lat": "31.237194",
  "lng": "130.642861",
  "pokemon": [
   "イーブイ"
  ],
  "zukan_ids": [
   "133"
  ],
  "image": "https://local.pokemon.jp/img/p/manhole/1a0d76db2fb9b2cd5857ad3ee233e054_l.png",
  "detail_url": "https://local.pokemon.jp/manhole/desc/1/"
 },
 {
  "manhole_no": "2",
  "pref_name": "鹿児島県",
  "city": "指宿市",
  "address": "鹿児島県指宿市湯の浜5丁目26-29",
  "lat": "31.228",
  "lng": "130.653028",
  "pokemon": [
   "シャワーズ"
  ],
  "zukan_ids": [
   "134"
  ],
  "image": "https://local.pokemon.jp/img/p/manhole/79b15b766a24880ed19bda2ec4863ab2_l.png",
  "detail_url": "https://local.pokemon.jp/manhole/desc/2/"
 },
 {
  "manhole_no": "3",
  "pref_name": "鹿児島県",
  "city": "指宿市",
  "address": "鹿児島県指宿市東方9300−1",
  "lat": "31.255278",
  "lng": "130.647639",
  "pokemon": [
   "サンダース"
  ],
  "zukan_ids": [
   "135"
  ],
  "image": "https://local.pokemon.jp/img/p/manhole/5c4e9fb2f499dee2fd8206c9a0926294_l.png",
  "detail_url": "https://local.pokemon.jp/manhole/desc/3/"
 },
 {
  "manhole_no": "4",
  "pref_name": "鹿児島県",
  "city": "指宿市",
  "address": "鹿児島県指宿市湯の浜5丁目25-18",
  "lat": "31.229417",
  "lng": "130.651972",
  "pokemon": [
   "ブースター"
  ],
  "zukan_ids": [
   "136"
  ],
  "image": "https://local.pokemon.jp/img/p/manhole/3b15f5b988170e1ac987781317e3e6c4_l.png",
  "detail_url": "https://local.pokemon.jp/manhole/desc/4/"
 },
 {
  "manhole_no": "5",
  "pref_name": "鹿児島県",
  "city": "指宿市",
  "address": "鹿児島県指宿市湊2丁目5-33",
  "lat": "31.238278",
  "lng": "130.645",
  "pokemon": [
   "エーフィ"
  ],
  "zukan_ids": [
   "196"
  ],
  "image": "https://local.pokemon.jp/img/p/manhole/80a6b07026c38a97c89436f59e3c5cc2_l.png",
  "detail_url": "https://local.pokemon.jp/manhole/desc/5/"
 },
 {
  "manhole_no": "6",
  "pref_name": "鹿児島県",
  "city": "指宿市",
  "address": "鹿児島県指宿市十二町指宿駅",
  "lat": "31.236833",
  "lng": "130.642188",
  "pokemon": [
   "ブラッキー"
  ],
  "zukan_ids": [
   "197"
  ],
  "image": "https://local.pokemon.jp/img/p/manhole/2662aede3a093feb445970ca2e077f85_l.png",
  "detail_url": "https://local.pokemon.jp/manhole/desc/6/"
 },
 {
  "manhole_no": "7",
  "pref_name": "鹿児島県",
  "city": "指宿市",
  "address": "鹿児島県指宿市東方11915-5",
  "lat": "31.263889",
  "lng": "130.662917",
  "pokemon": [
   "リーフィア"
  ],
  "zukan_ids": [
   "470"
  ],
  "image": "https://local.pokemon.jp/img/p/manhole/079877ac0df6af8da9edc55ca9a06ae8_l.png",
  "detail_url": "https://local.pokemon.jp/manhole/desc/7/"
 },
 {
  "manhole_no": "8",
  "pref_name": "鹿児島県",
  "city": "指宿市",
  "address": "鹿児島県指宿市十二町2290",
  "lat": "31.231056",
  "lng": "130.644611",
  "pokemon": [
   "グレイシア"
  ],
  "zukan_ids": [
   "471"
  ],
  "image": "https://local.pokemon.jp/img/p/manhole/580f382c51079d1d67edbb02d23462f4_l.png",
  "detail_url": "https://local.pokemon.jp/manhole/desc/8/"
 },
 {
  "manhole_no": "9",
  "pref_name": "鹿児島県",
  "city": "指宿市",
  "address": "鹿児島県指宿市十二町2190",
  "lat": "31.235444",
  "lng": "130.641389",
  "pokemon": [
   "ニンフィア"
  ],
  "zukan_ids": [
   "700"
  ],
  "image": "https://local.pokemon.jp/img/p/manhole/5953fdc915091e1bfb6a059b8de5a086_l.png",
  "detail_url": "https://local.pokemon.jp/manhole/desc/9/"
 },
 {
  "manhole_no": "10",
  "pref_name": "岩手県",
  "city": "洋野町",
  "address": "岩手県洋野町種市22-133-11",
  "lat": "40.406101",
  "lng": "141.719531",
  "pokemon": [
   "カブト"
  ],
  "zukan_ids": [
   "140"
  ],
  "image": "https://local.pokemon.jp/img/p/manhole/03c8da68d0400d4eaf0d9bf03d274f98_l.png",
  "detail_url": "https://local.pokemon.jp/manhole/desc/10/"
 },
 {
  "manhole_no": "11",
  "pref_name": "岩手県",
  "city": "久慈市",
  "address": "岩手県久慈市中町2-5-6",
  "lat": "40.189742",
  "lng": "141.765832",
  "pokemon": [
   "プテラ"
  ],
  "zukan_ids": [
   "142"
  ],
  "image": "https://local.pokemon.jp/img/p/manhole/ce6927c9ff939ee9cb4936e6480b8333_l.png",
  "detail_url": "https://local.pokemon.jp/manhole/desc/11/"
 },
 {
  "manhole_no": "12",
  "pref_name": "岩手県",
  "city": "野田村",
  "address": "岩手県野田村大字野田第5地割",
  "lat": "40.082726",
  "lng": "141.828678",
  "pokemon": [
   "イワーク"
  ],
  "zukan_ids": [
   "95"
  ],
  "image": "https://local.pokemon.jp/img/p/manhole/b30c30e0cdf7b450379ca2f43faa3aac_l.png",
  "detail_url": "https://local.pokemon.jp/manhole/desc/12/"
 },
 {
  "manhole_no": "13",
  "pref_name": "岩手県",
  "city": "普代村",
  "address": "岩手県普代村9-5-3",
  "lat": "40.002821",
  "lng": "141.885736",
  "pokemon": [
   "タテトプス"
  ],
  "zukan_ids": [
   "410"
  ],
  "image": "https://local.pokemon.jp/img/p/manhole/20fa066c221649e42e0aaf974678c05c_l.png",
  "detail_url": "https://local.pokemon.jp/manhole/desc/13/"
 },
 {
  "manhole_no": "14",
  "pref_name": "岩手県",
  "city": "岩泉町",
  "address": "岩手県岩泉町岩泉字神成1-1",
  "lat": "39.86044",
  "lng": "141.796532",
  "pokemon": [
   "チゴラス"
  ],
  "zukan_ids": [
   "696"
  ],
  "image": "https://local.pokemon.jp/img/p/manhole/fd8ca30f4138a318860f226d8c6c99fc_l.png",
  "detail_url": "https://local.pokemon.jp/manhole/desc/14/"
 },
 {
  "manhole_no": "15",
  "pref_name": "岩手県",
  "city": "田野畑村",
  "address": "岩手県田野畑村松前沢1-38",
  "lat": "39.916682",
  "lng": "141.938688",
  "pokemon": [
   "ノズパス"
  ],
  "zukan_ids": [
   "299"
  ],
  "image": "https://local.pokemon.jp/img/p/manhole/9a02cf6fca246847485b2f0e17e2088a_l.png",
  "detail_url": "https://local.pokemon.jp/manhole/desc/15/"
 },
 {
  "manhole_no": "16",
  "pref_name": "岩手県",
  "city": "宮古市",
  "address": "岩手県宮古市臨港通1-20",
  "lat": "39.639471",
  "lng": "141.969701",
  "pokemon": [
   "イシツブテ"
  ],
  "zukan_ids": [
   "74"
  ],
  "image": "https://local.pokemon.jp/img/p/manhole/3de728b1129d289ee8a8cfdc453d1beb_l.png",
  "detail_url": "https://local.pokemon.jp/manhole/desc/16/"
 },
 {
  "manhole_no": "17",
  "pref_name": "岩手県",
  "city": "山田町",
  "address": "岩手県山田町川向町51-15",
  "lat": "39.464186",
  "lng": "141.951043",
  "pokemon": [
   "オムナイト"
  ],
  "zukan_ids": [
   "138"
  ],
  "image": "https://local.pokemon.jp/img/p/manhole/54a462f0357b55fb5dfcac3067901572_l.png",
  "detail_url": "https://local.pokemon.jp/manhole/desc/17/"
 },
 {
  "manhole_no": "18",
  "pref_name": "岩手県",
  "city": "大槌町",
  "address": "岩手県大槌町本町1-1",
  "lat": "39.357255",
  "lng": "141.90316",
  "pokemon": [
   "ツボツボ"
  ],
  "zukan_ids": [
   "213"
  ],
  "image": "https://local.pokemon.jp/img/p/manhole/1500f5e64d9158b2504bff2a8b9874da_l.png",
  "detail_url": "https://local.pokemon.jp/manhole/desc/18/"
 },
 {
  "manhole_no": "19",
  "pref_name": "岩手県",
  "city": "釜石市",
  "address": "岩手県釜石市鵜住居町第16地割72-1",
  "lat": "39.326865",
  "lng": "141.887862",
  "pokemon": [
   "ココドラ"
  ],
  "zukan_ids": [
   "304"
  ],
  "image": "https://local.pokemon.jp/img/p/manhole/ef0d3f35693fea34981a2a6c5e14104f_l.png",
  "detail_url": "https://local.pokemon.jp/manhole/desc/19/"
 },
 {
  "manhole_no": "20",
  "pref_name": "岩手県",
  "city": "大船渡市",
  "address": "岩手県大船渡市盛町字町13-1",
  "lat": "39.085906",
  "lng": "141.710256",
  "pokemon": [
   "サイホーン"
  ],
  "zukan_ids": [
   "111"
  ],
  "image": "https://local.pokemon.jp/img/p/manhole/f7c29ccbcee1c86abe67c6c5df162231_l.png",
  "detail_url": "https://local.pokemon.jp/manhole/desc/20/"
 },
 {
  "manhole_no": "21",
  "pref_name": "岩手県",
  "city": "陸前高田市",
  "address": "岩手県陸前高田市高田町字馬場前89-1",
  "lat": "39.01675",
  "lng": "141.628694",
  "pokemon": [
   "イワンコ"
  ],
  "zukan_ids": [
   "744"
  ],
  "image": "https://local.pokemon.jp/img/p/manhole/b48f36c2ea4948e57d737a055d5fe47d_l.png",
  "detail_url": "https://local.pokemon.jp/manhole/desc/21/"
 },
 {
  "manhole_no": "22",
  "pref_name": "岩手県",
  "city": "住田町",
  "address": "岩手県住田町上有住字土倉298-81",
  "lat": "39.242903",
  "lng": "141.684320",
  "pokemon": [
   "ヨーギラス"
  ],
  "zukan_ids": [
   "246"
  ],
  "image": "https://local.pokemon.jp/img/p/manhole/83d5c100e0ee6372bd16490dbc67fa5d_l.png",
  "detail_url": "https://local.pokemon.jp/manhole/desc/22/"
 },
 {
  "manhole_no": "23",
  "pref_name": "神奈川県",
  "city": "横浜市",
  "address": "神奈川県横浜市中区桜木町1-1",
  "lat": "35.451167",
  "lng": "139.631501",
  "pokemon": [
   "ピカチュウ"
  ],
  "zukan_ids": [
   "25"
  ],
  "image": "https://local.pokemon.jp/img/p/manhole/dd60987af1dda49a37486a2cbcb4d407_l.png",
  "detail_url": "https://local.pokemon.jp/manhole/desc/23/"
 },
 {
  "manhole_no": "28",
  "pref_name": "香川県",
  "city": "高松市",
  "address": "香川県高松市南新町8-30地先",
  "lat": "34.338888",
  "lng": "134.049052",
  "pokemon": [
   "ヤドン"
  ],
  "zukan_ids": [
   "79"
  ],
  "image": "https://local.pokemon.jp/img/p/manhole/3f8606c250a83239f508571b1484d584_l.png",
  "detail_url": "https://local.pokemon.jp/manhole/desc/28/"
 },
 {
  "manhole_no": "29",
  "pref_name": "香川県",
  "city": "丸亀市",
  "address": "香川県丸亀市浜町109-4",
  "lat": "34.292014",
  "lng": "133.793951",
  "pokemon": [
   "ヤドン "
  ],
  "zukan_ids": [
   "79"
  ],
  "image": "https://local.pokemon.jp/img/p/manhole/80456987ca2775b7af3dffce1efbf964_l.png",
  "detail_url": "https://local.pokemon.jp/manhole/desc/29/"
 },
 {
  "manhole_no": "30",
  "pref_name": "香川県",
  "city": "坂出市",
  "address": "香川県坂出市駒止町1丁目4",
  "lat": "34.312992",
  "lng": "133.856292",
  "pokemon": [
   "ヤドン"
  ],
  "zukan_ids": [
   "79"
  ],
  "image": "https://local.pokemon.jp/img/p/manhole/c76924a522f5f4c6be3f7495f67175a3_l.png",
  "detail_url": "https://local.pokemon.jp/manhole/desc/30/"
 },
 {
  "manhole_no": "31",
  "pref_name": "香川県",
  "city": "善通寺市",
  "address": "香川県善通寺市善通寺町二丁目2",
  "lat": "34.22531",
  "lng": "133.7773",
  "pokemon": [
   "ヤドン",
   "ヤドラン"
  ],
  "zukan_ids": [
   "79",
   "80"
  ],
  "image": "https://local.pokemon.jp/img/p/manhole/c119928b9d5eaad8001359861af7ccad_l.png",
  "detail_url": "https://local.pokemon.jp/manhole/desc/31/"
 },
 {
  "manhole_no": "32",
  "pref_name": "香川県",
  "city": "観音寺市",
  "address": "香川県観音寺市観音寺町甲1234-4",
  "lat": "34.125275",
  "lng": "133.655211",
  "pokemon": [
   "ヤドン",
   "ヤドキング"
  ],
  "zukan_ids": [
   "79",
   "199"
  ],
  "image": "https://local.pokemon.jp/img/p/manhole/30dbde7fe8d7f8d0cae358eecebfe44b_l.png",
  "detail_url": "https://local.pokemon.jp/manhole/desc/32/"
 },
 {
  "manhole_no": "33",
  "pref_name": "香川県",
  "city": "さぬき市",
  "address": "香川県さぬき市志度670-10",
  "lat": "34.321305",
  "lng": "134.173241",
  "pokemon": [
   "ヤドン",
   "ピッピ"
  ],
  "zukan_ids": [
   "79",
   "35"
  ],
  "image": "https://local.pokemon.jp/img/p/manhole/2f6edaf36ce1857f7f8942cf0bac2b2c_l.png",
  "detail_url": "https://local.pokemon.jp/manhole/desc/33/"
 },
 {
  "manhole_no": "34",
  "pref_name": "香川県",
  "city": "東かがわ市",
  "address": "香川県東かがわ市三本松1172-1",
  "lat": "34.251174",
  "lng": "134.333457",
  "pokemon": [
   "ヤドン"
  ],
  "zukan_ids": [
   "79"
  ],
  "image": "https://local.pokemon.jp/img/p/manhole/55cd911fc9c25e0e8012891daa24946c_l.png",
  "detail_url": "https://local.pokemon.jp/manhole/desc/34/"
 },
 {
  "manhole_no": "35",
  "pref_name": "香川県",
  "city": "三豊市",
  "address": "香川県三豊市詫間町粟島1541地先",
  "lat": "34.2687992",
  "lng": "133.6322219",
  "pokemon": [
   "ヤドン",
   "シェルダー"
  ],
  "zukan_ids": [
   "79",
   "90"
  ],
  "image": "https://local.pokemon.jp/img/p/manhole/b28655a215e13414ed57362a65800eef_l.png",
  "detail_url": "https://local.pokemon.jp/manhole/desc/35/"
 },
 {
  "manhole_no": "36",
  "pref_name": "香川県",
  "city": "土庄町",
  "address": "香川県土庄町甲222-1",
  "lat": "34.482694",
  "lng": "134.187512",
  "pokemon": [
   "ヤドン",
   "メタモン"
  ],
  "zukan_ids": [
   "79",
   "132"
  ],
  "image": "https://local.pokemon.jp/img/p/manhole/4ce0a7a8695de3b57c977499c004ae68_l.png",
  "detail_url": "https://local.pokemon.jp/manhole/desc/36/"
 },
 {
  "manhole_no": "37",
  "pref_name": "香川県",
  "city": "小豆島町",
  "address": "香川県小豆島町室生2084-1",
  "lat": "34.4708542",
  "lng": "134.2358695",
  "pokemon": [
   "ヤドン"
  ],
  "zukan_ids": [
   "79"
  ],
  "image": "https://local.pokemon.jp/img/p/manhole/e898687780632f41f88293185dc187f9_l.png",
  "detail_url": "https://local.pokemon.jp/manhole/desc/37/"
 },
 {
  "manhole_no": "38",
  "pref_name": "香川県",
  "city": "三木町",
  "address": "香川県三木町大字氷上310",
  "lat": "34.268586",
  "lng": "134.134567",
  "pokemon": [
   "ヤドン"
  ],
  "zukan_ids": [
   "79"
  ],
  "image": "https://local.pokemon.jp/img/p/manhole/5b76f33d2939d085b7b8877e4843b710_l.png",
  "detail_url": "https://local.pokemon.jp/manhole/desc/38/"
 },
 {
  "manhole_no": "39",
  "pref_name": "香川県",
  "city": "直島町",
  "address": "香川県直島町2249番地55",
  "lat": "34.455827",
  "lng": "133.975492",
  "pokemon": [
   "ヤドン",
   "コイキング"
  ],
  "zukan_ids": [
   "79",
   "129"
  ],
  "image": "https://local.pokemon.jp/img/p/manhole/a110919f47d4cf2b904ebc498d449df2_l.png",
  "detail_url": "https://local.pokemon.jp/manhole/desc/39/"
 },
 {
  "manhole_no": "40",
  "pref_name": "香川県",
  "city": "綾川町",
  "address": "香川県綾川町滝宮1589-2",
  "lat": "34.250399",
  "lng": "133.917073",
  "pokemon": [
   "ヤドン"
  ],
  "zukan_ids": [
   "79"
  ],
  "image": "https://local.pokemon.jp/img/p/manhole/97364ac57cfec00bae3532e5b86993e1_l.png",
  "detail_url": "https://local.pokemon.jp/manhole/desc/40/"
 },
 {
  "manhole_no": "41",
  "pref_name": "香川県",
  "city": "琴平町",
  "address": "香川県琴平町723-2",
  "lat": "34.187735",
  "lng": "133.819896",
  "pokemon": [
   "ヤドン"
  ],
  "zukan_ids": [
   "79"
  ],
  "image": "https://local.pokemon.jp/img/p/manhole/a657921a86223c0d151c52658fad232b_l.png",
  "detail_url": "https://local.pokemon.jp/manhole/desc/41/"
 },
 {
  "manhole_no": "42",
  "pref_name": "香川県",
  "city": "多度津町",
  "address": "香川県多度津町栄町3-3",
  "lat": "34.272282",
  "lng": "133.757247",
  "pokemon": [
   "ヤドン"
  ],
  "zukan_ids": [
   "79"
  ],
  "image": "https://local.pokemon.jp/img/p/manhole/2eeafabec505047777390acd55805848_l.png",
  "detail_url": "https://local.pokemon.jp/manhole/desc/42/"
 },
 {
  "manhole_no": "43",
  "pref_name": "香川県",
  "city": "まんのう町",
  "address": "香川県まんのう町吉野4314-1",
  "lat": "34.173339",
  "lng": "133.871387",
  "pokemon": [
   "ヤドン"
  ],
  "zukan_ids": [
   "79"
  ],
  "image": "https://local.pokemon.jp/img/p/manhole/f7183a39726aa627e14ad95fbeaf881f_l.png",
  "detail_url": "https://local.pokemon.jp/manhole/desc/43/"
 },
 {
  "manhole_no": "44",
  "pref_name": "宮城県",
  "city": "気仙沼市",
  "address": "宮城県気仙沼市南町海岸1-14",
  "lat": "38.905694",
  "lng": "141.574667",
  "pokemon": [
   "ラプラス",
   "イシツブテ"
  ],
  "zukan_ids": [
   "131",
   "74"
  ],
  "image": "https://local.pokemon.jp/img/p/manhole/196cb20d603ee6eae87932a61344e7e3_l.png",
  "detail_url": "https://local.pokemon.jp/manhole/desc/44/"
 },
 {
  "manhole_no": "45",
  "pref_name": "宮城県",
  "city": "南三陸町",
  "address": "宮城県南三陸町歌津字伊里前96-1",
  "lat": "38.717061",
  "lng": "141.521150",
  "pokemon": [
   "ラプラス",
   "オクタン"
  ],
  "zukan_ids": [
   "131",
   "224"
  ],
  "image": "https://local.pokemon.jp/img/p/manhole/21dc0ec65a1eb468c86d336ad90ea120_l.png",
  "detail_url": "https://local.pokemon.jp/manhole/desc/45/"
 },
 {
  "manhole_no": "46",
  "pref_name": "宮城県",
  "city": "女川町",
  "address": "宮城県女川町女川2-65",
  "lat": "38.445695",
  "lng": "141.44623",
  "pokemon": [
   "ラプラス",
   "キャモメ"
  ],
  "zukan_ids": [
   "131",
   "278"
  ],
  "image": "https://local.pokemon.jp/img/p/manhole/bba07094c6513abf7611f18f842b4c11_l.png",
  "detail_url": "https://local.pokemon.jp/manhole/desc/46/"
 },
 {
  "manhole_no": "47",
  "pref_name": "宮城県",
  "city": "石巻市",
  "address": "宮城県石巻市穀町14番1号",
  "lat": "38.433844",
  "lng": "141.303041",
  "pokemon": [
   "ラプラス",
   "ニャース",
   "ニャビー",
   "エネコ",
   "ニャルマー"
  ],
  "zukan_ids": [
   "131",
   "52",
   "725",
   "300",
   "431"
  ],
  "image": "https://local.pokemon.jp/img/p/manhole/a6ba2f448a32de55a112c963c72589aa_l.png",
  "detail_url": "https://local.pokemon.jp/manhole/desc/47/"
 },
 {
  "manhole_no": "48",
  "pref_name": "宮城県",
  "city": "東松島市",
  "address": "宮城県東松島市野蒜ケ丘一丁目15-1",
  "lat": "38.379414",
  "lng": "141.15671",
  "pokemon": [
   "ラプラス",
   "ラティオス"
  ],
  "zukan_ids": [
   "131",
   "381"
  ],
  "image": "https://local.pokemon.jp/img/p/manhole/c90a0f605f37f87cfefb496c80e8a0dc_l.png",
  "detail_url": "https://local.pokemon.jp/manhole/desc/48/"
 },
 {
  "manhole_no": "49",
  "pref_name": "宮城県",
  "city": "松島町",
  "address": "宮城県松島町松島字浪打浜地内",
  "lat": "38.368987",
  "lng": "141.061207",
  "pokemon": [
   "ラプラス"
  ],
  "zukan_ids": [
   "131"
  ],
  "image": "https://local.pokemon.jp/img/p/manhole/21ee5b603bbc503949a5160aac6211c9_l.png",
  "detail_url": "https://local.pokemon.jp/manhole/desc/49/"
 },
 {
  "manhole_no": "50",
  "pref_name": "宮城県",
  "city": "塩竈市",
  "address": "宮城県塩竈市海岸通200-15",
  "lat": "38.318226",
  "lng": "141.023075",
  "pokemon": [
   "ラプラス",
   "プラスル"
  ],
  "zukan_ids": [
   "131",
   "311"
  ],
  "image": "https://local.pokemon.jp/img/p/manhole/879f9a0774db8f5a92918b55779f41de_l.png",
  "detail_url": "https://local.pokemon.jp/manhole/desc/50/"
 },
 {
  "manhole_no": "51",
  "pref_name": "宮城県",
  "city": "利府町",
  "address": "宮城県利府町利府字新並松4",
  "lat": "38.329512",
  "lng": "140.975248",
  "pokemon": [
   "ラプラス",
   "マイナン"
  ],
  "zukan_ids": [
   "131",
   "312"
  ],
  "image": "https://local.pokemon.jp/img/p/manhole/c696ccb7c089d73174b41ab9fca770c8_l.png",
  "detail_url": "https://local.pokemon.jp/manhole/desc/51/"
 },
 {
  "manhole_no": "52",
  "pref_name": "宮城県",
  "city": "七ヶ浜町",
  "address": "宮城県七ヶ浜町花渕浜字館下184",
  "lat": "38.304315",
  "lng": "141.083342",
  "pokemon": [
   "ラプラス",
   "メタモン",
   "ヒトデマン"
  ],
  "zukan_ids": [
   "131",
   "132",
   "120"
  ],
  "image": "https://local.pokemon.jp/img/p/manhole/75e862975740feba88601a636fc95395_l.png",
  "detail_url": "https://local.pokemon.jp/manhole/desc/52/"
 },
 {
  "manhole_no": "53",
  "pref_name": "宮城県",
  "city": "多賀城市",
  "address": "宮城県多賀城市中央2丁目7番地",
  "lat": "38.291943",
  "lng": "141.007158",
  "pokemon": [
   "ラプラス",
   "タッツー"
  ],
  "zukan_ids": [
   "131",
   "116"
  ],
  "image": "https://local.pokemon.jp/img/p/manhole/cf7ba94b9548c4c34a1904f0a45ffd48_l.png",
  "detail_url": "https://local.pokemon.jp/manhole/desc/53/"
 },
 {
  "manhole_no": "54",
  "pref_name": "宮城県",
  "city": "仙台市",
  "address": "宮城県仙台市青葉区一番町二丁目6-5",
  "lat": "38.258587",
  "lng": "140.872666",
  "pokemon": [
   "ラプラス",
   "ジラーチ"
  ],
  "zukan_ids": [
   "131",
   "385"
  ],
  "image": "https://local.pokemon.jp/img/p/manhole/6e116f60e1990858c1709d0ad7168ed0_l.png",
  "detail_url": "https://local.pokemon.jp/manhole/desc/54/"
 },
 {
  "manhole_no": "55",
  "pref_name": "宮城県",
  "city": "名取市",
  "address": "宮城県名取市閖上東二丁目13‐2",
  "lat": "38.17213",
  "lng": "140.954044",
  "pokemon": [
   "ラプラス"
  ],
  "zukan_ids": [
   "131"
  ],
  "image": "https://local.pokemon.jp/img/p/manhole/b66498501b206eb2ec6a710f114c44bd_l.png",
  "detail_url": "https://local.pokemon.jp/manhole/desc/55/"
 },
 {
  "manhole_no": "56",
  "pref_name": "宮城県",
  "city": "岩沼市",
  "address": "宮城県岩沼市中央1丁目2-13",
  "lat": "38.105296",
  "lng": "140.866325",
  "pokemon": [
   "ラプラス",
   "トゲピー"
  ],
  "zukan_ids": [
   "131",
   "175"
  ],
  "image": "https://local.pokemon.jp/img/p/manhole/122c918889a88df0101103652da66ffc_l.png",
  "detail_url": "https://local.pokemon.jp/manhole/desc/56/"
 },
 {
  "manhole_no": "57",
  "pref_name": "宮城県",
  "city": "亘理町",
  "address": "宮城県亘理町荒浜字隈崎9-2",
  "lat": "38.04217",
  "lng": "140.915724",
  "pokemon": [
   "ラプラス",
   "チルット",
   "ムックル",
   "スバメ",
   "マメパト"
  ],
  "zukan_ids": [
   "131",
   "333",
   "396",
   "276",
   "519"
  ],
  "image": "https://local.pokemon.jp/img/p/manhole/31b568509d0a74bdd6d418b9107da7ea_l.png",
  "detail_url": "https://local.pokemon.jp/manhole/desc/57/"
 },
 {
  "manhole_no": "58",
  "pref_name": "宮城県",
  "city": "山元町",
  "address": "宮城県山元町坂元字町東31-10",
  "lat": "37.923988",
  "lng": "140.900996",
  "pokemon": [
   "ラプラス",
   "ラッキー"
  ],
  "zukan_ids": [
   "131",
   "113"
  ],
  "image": "https://local.pokemon.jp/img/p/manhole/da648e1b955aa58ff9d29764c3b14098_l.png",
  "detail_url": "https://local.pokemon.jp/manhole/desc/58/"
 },
 {
  "manhole_no": "59",
  "pref_name": "北海道",
  "city": "石狩市",
  "address": "北海道石狩市浜益区実田254-4",
  "lat": "43.585848",
  "lng": "141.423898",
  "pokemon": [
   "ロコン",
   "ナエトル"
  ],
  "zukan_ids": [
   "037",
   "387"
  ],
  "image": "https://local.pokemon.jp/img/p/manhole/9a5bcd8fc9acb25f4bd0f7ad5ed029ee_l.png",
  "detail_url": "https://local.pokemon.jp/manhole/desc/59/"
 },
 {
  "manhole_no": "60",
  "pref_name": "北海道",
  "city": "恵庭市",
  "address": "北海道恵庭市南島松817-18",
  "lat": "42.897132",
  "lng": "141.585789",
  "pokemon": [
   "ロコン"
  ],
  "zukan_ids": [
   "037"
  ],
  "image": "https://local.pokemon.jp/img/p/manhole/0ade724150fd22b8e25d72508fdfbc91_l.png",
  "detail_url": "https://local.pokemon.jp/manhole/desc/60/"
 },
 {
  "manhole_no": "61",
  "pref_name": "北海道",
  "city": "洞爺湖町",
  "address": "北海道洞爺湖町洞爺湖温泉224",
  "lat": "42.566111",
  "lng": "140.819072",
  "pokemon": [
   "ロコン",
   "ウリムー"
  ],
  "zukan_ids": [
   "037",
   "220"
  ],
  "image": "https://local.pokemon.jp/img/p/manhole/c9b1ca1743f22f22ec0cc61d901b5dad_l.png",
  "detail_url": "https://local.pokemon.jp/manhole/desc/61/"
 },
 {
  "manhole_no": "62",
  "pref_name": "北海道",
  "city": "森町",
  "address": "北海道森町本町6-22",
  "lat": "42.108855",
  "lng": "140.572941",
  "pokemon": [
   "マーイーカ"
  ],
  "zukan_ids": [
   "686"
  ],
  "image": "https://local.pokemon.jp/img/p/manhole/7304ef666e025271c5f04399faf2bc07_l.png",
  "detail_url": "https://local.pokemon.jp/manhole/desc/62/"
 },
 {
  "manhole_no": "63",
  "pref_name": "北海道",
  "city": "上ノ国町",
  "address": "北海道上ノ国町字原歌3番地",
  "lat": "41.808398",
  "lng": "140.095409",
  "pokemon": [
   "ロコン",
   "ヒコザル"
  ],
  "zukan_ids": [
   "037",
   "390"
  ],
  "image": "https://local.pokemon.jp/img/p/manhole/835ef4993bfa0a192e0f0fe4a51c13a3_l.png",
  "detail_url": "https://local.pokemon.jp/manhole/desc/63/"
 },
 {
  "manhole_no": "64",
  "pref_name": "北海道",
  "city": "士別市",
  "address": "北海道士別市大通東5丁目",
  "lat": "44.175974",
  "lng": "142.392417",
  "pokemon": [
   "ロコン",
   "メリープ"
  ],
  "zukan_ids": [
   "037",
   "179"
  ],
  "image": "https://local.pokemon.jp/img/p/manhole/c5ca9b484bde47acd0cd18e4c115eb74_l.png",
  "detail_url": "https://local.pokemon.jp/manhole/desc/64/"
 },
 {
  "manhole_no": "65",
  "pref_name": "北海道",
  "city": "比布町",
  "address": "北海道比布町西町2丁目6番1号",
  "lat": "43.875033",
  "lng": "142.471699",
  "pokemon": [
   "ポッチャマ"
  ],
  "zukan_ids": [
   "393"
  ],
  "image": "https://local.pokemon.jp/img/p/manhole/f5e2dff8844d9a78c1baca3405a0737b_l.png",
  "detail_url": "https://local.pokemon.jp/manhole/desc/65/"
 },
 {
  "manhole_no": "66",
  "pref_name": "北海道",
  "city": "天塩町",
  "address": "北海道天塩町新開通4丁目7227番地2",
  "lat": "44.88452",
  "lng": "141.74797",
  "pokemon": [
   "ロコン"
  ],
  "zukan_ids": [
   "037"
  ],
  "image": "https://local.pokemon.jp/img/p/manhole/ad2274e40919a0301047f6e809a040fd_l.png",
  "detail_url": "https://local.pokemon.jp/manhole/desc/66/"
 },
 {
  "manhole_no": "67",
  "pref_name": "北海道",
  "city": "稚内市",
  "address": "北海道稚内市中央3-5",
  "lat": "45.417236",
  "lng": "141.677095",
  "pokemon": [],
  "zukan_ids": [],
  "image": "https://local.pokemon.jp/img/p/manhole/92f6a149a9614bf12a606d2c691f4def_l.png",
  "detail_url": "https://local.pokemon.jp/manhole/desc/67/"
 },
 {
  "manhole_no": "68",
  "pref_name": "北海道",
  "city": "豊富町",
  "address": "北海道豊富町東1条6丁目",
  "lat": "45.103245",
  "lng": "141.778643",
  "pokemon": [
   "ミルタンク"
  ],
  "zukan_ids": [
   "241"
  ],
  "image": "https://local.pokemon.jp/img/p/manhole/d4e4eb2b9d3e88657aec298b6778c90d_l.png",
  "detail_url": "https://local.pokemon.jp/manhole/desc/68/"
 },
 {
  "manhole_no": "69",
  "pref_name": "北海道",
  "city": "紋別市",
  "address": "北海道紋別市海洋公園",
  "lat": "44.334641",
  "lng": "143.372211",
  "pokemon": [
   "タマザラシ"
  ],
  "zukan_ids": [
   "363"
  ],
  "image": "https://local.pokemon.jp/img/p/manhole/708b89a16446446c4f4b67b89afb40b2_l.png",
  "detail_url": "https://local.pokemon.jp/manhole/desc/69/"
 },
 {
  "manhole_no": "70",
  "pref_name": "北海道",
  "city": "遠軽町",
  "address": "北海道遠軽町野上150番地",
  "lat": "44.021878",
  "lng": "143.497131",
  "pokemon": [
   "ユキメノコ"
  ],
  "zukan_ids": [
   "478"
  ],
  "image": "https://local.pokemon.jp/img/p/manhole/ea59f21d2187fb600591f5b4843bf63d_l.png",
  "detail_url": "https://local.pokemon.jp/manhole/desc/70/"
 },
 {
  "manhole_no": "71",
  "pref_name": "北海道",
  "city": "大空町",
  "address": "北海道大空町女満別本通1丁目",
  "lat": "43.915555",
  "lng": "144.17137",
  "pokemon": [
   "ロコン",
   "ムクホーク"
  ],
  "zukan_ids": [
   "037",
   "398"
  ],
  "image": "https://local.pokemon.jp/img/p/manhole/fdf28d6a85b570757b1a6a6045c05ace_l.png",
  "detail_url": "https://local.pokemon.jp/manhole/desc/71/"
 },
 {
  "manhole_no": "72",
  "pref_name": "北海道",
  "city": "新得町",
  "address": "北海道新得町本通北1丁目",
  "lat": "43.082684",
  "lng": "142.832927",
  "pokemon": [
   "ヒメグマ"
  ],
  "zukan_ids": [
   "216"
  ],
  "image": "https://local.pokemon.jp/img/p/manhole/0ae31f4e9e07a44469e899c4f8a7c0d1_l.png",
  "detail_url": "https://local.pokemon.jp/manhole/desc/72/"
 },
 {
  "manhole_no": "73",
  "pref_name": "北海道",
  "city": "足寄町",
  "address": "北海道足寄町北1条1丁目1",
  "lat": "43.244229",
  "lng": "143.546753",
  "pokemon": [
   "ユクシー",
   "エムリット",
   "アグノム"
  ],
  "zukan_ids": [
   "480",
   "481",
   "482"
  ],
  "image": "https://local.pokemon.jp/img/p/manhole/18709c0795ab510b4759d0a7d51bd645_l.png",
  "detail_url": "https://local.pokemon.jp/manhole/desc/73/"
 },
 {
  "manhole_no": "74",
  "pref_name": "鳥取県",
  "city": "鳥取市",
  "address": "鳥取県鳥取市福部町湯山2083-17地先",
  "lat": "35.539668",
  "lng": "134.237266",
  "pokemon": [
   "サンド",
   "ミミロル"
  ],
  "zukan_ids": [
   "027",
   "427"
  ],
  "image": "https://local.pokemon.jp/img/p/manhole/ff3da633c56590b1692d2cc729807dd8_l.png",
  "detail_url": "https://local.pokemon.jp/manhole/desc/74/"
 },
 {
  "manhole_no": "75",
  "pref_name": "鳥取県",
  "city": "米子市",
  "address": "鳥取県米子市皆生温泉3丁目1番1号",
  "lat": "35.456258",
  "lng": "133.361525",
  "pokemon": [
   "サンド",
   "カモネギ",
   "スワンナ"
  ],
  "zukan_ids": [
   "027",
   "083",
   "581"
  ],
  "image": "https://local.pokemon.jp/img/p/manhole/d41137bea205741d5a7f4cb7e5646494_l.png",
  "detail_url": "https://local.pokemon.jp/manhole/desc/75/"
 },
 {
  "manhole_no": "76",
  "pref_name": "鳥取県",
  "city": "倉吉市",
  "address": "鳥取県倉吉市上井195",
  "lat": "35.454272",
  "lng": "133.850116",
  "pokemon": [
   "サンド"
  ],
  "zukan_ids": [
   "027"
  ],
  "image": "https://local.pokemon.jp/img/p/manhole/5eab25e1ec94bbda4e016964c1e4c0c2_l.png",
  "detail_url": "https://local.pokemon.jp/manhole/desc/76/"
 },
 {
  "manhole_no": "77",
  "pref_name": "鳥取県",
  "city": "境港市",
  "address": "鳥取県境港市竹内団地252-2",
  "lat": "35.521481",
  "lng": "133.258356",
  "pokemon": [
   "サンド",
   "クラブ"
  ],
  "zukan_ids": [
   "027",
   "098"
  ],
  "image": "https://local.pokemon.jp/img/p/manhole/f6da3dcbdb1a5e3805efeae1aed62a31_l.png",
  "detail_url": "https://local.pokemon.jp/manhole/desc/77/"
 },
 {
  "manhole_no": "78",
  "pref_name": "鳥取県",
  "city": "岩美町",
  "address": "鳥取県岩美町浦富2475-17",
  "lat": "35.590938",
  "lng": "134.321556",
  "pokemon": [
   "サンド",
   "ネイティオ"
  ],
  "zukan_ids": [
   "027",
   "178"
  ],
  "image": "https://local.pokemon.jp/img/p/manhole/abf9db7af4414278a820045649dd91b9_l.png",
  "detail_url": "https://local.pokemon.jp/manhole/desc/78/"
 },
 {
  "manhole_no": "79",
  "pref_name": "鳥取県",
  "city": "若桜町",
  "address": "鳥取県若桜町若桜983-2",
  "lat": "35.343951",
  "lng": "134.400345",
  "pokemon": [
   "ユキカブリ"
  ],
  "zukan_ids": [
   "459"
  ],
  "image": "https://local.pokemon.jp/img/p/manhole/89266fc70148e3988d2505b8bebec5e7_l.png",
  "detail_url": "https://local.pokemon.jp/manhole/desc/79/"
 },
 {
  "manhole_no": "80",
  "pref_name": "鳥取県",
  "city": "三朝町",
  "address": "鳥取県三朝町三朝783",
  "lat": "35.409324",
  "lng": "133.894397",
  "pokemon": [
   "サンド",
   "ケロマツ"
  ],
  "zukan_ids": [
   "027",
   "656"
  ],
  "image": "https://local.pokemon.jp/img/p/manhole/fa7745d9d2cf27532ece0df7ae94cdef_l.png",
  "detail_url": "https://local.pokemon.jp/manhole/desc/80/"
 },
 {
  "manhole_no": "81",
  "pref_name": "鳥取県",
  "city": "湯梨浜町",
  "address": "鳥取県湯梨浜町はわい温泉3-13",
  "lat": "35.478166",
  "lng": "133.88401",
  "pokemon": [
   "サンド",
   "シェルダー"
  ],
  "zukan_ids": [
   "027",
   "090"
  ],
  "image": "https://local.pokemon.jp/img/p/manhole/97b31d2afb1854865151081ffff89c13_l.png",
  "detail_url": "https://local.pokemon.jp/manhole/desc/81/"
 },
 {
  "manhole_no": "82",
  "pref_name": "鳥取県",
  "city": "琴浦町",
  "address": "鳥取県琴浦町別所270-4",
  "lat": "35.506942",
  "lng": "133.661612",
  "pokemon": [
   "サンド"
  ],
  "zukan_ids": [
   "027"
  ],
  "image": "https://local.pokemon.jp/img/p/manhole/b895c47d2aa420b0ee4f6de752d0b52b_l.png",
  "detail_url": "https://local.pokemon.jp/manhole/desc/82/"
 },
 {
  "manhole_no": "83",
  "pref_name": "鳥取県",
  "city": "大山町",
  "address": "鳥取県大山町名和951-6",
  "lat": "35.504584",
  "lng": "133.502093",
  "pokemon": [
   "ヒトモシ"
  ],
  "zukan_ids": [
   "607"
  ],
  "image": "https://local.pokemon.jp/img/p/manhole/9dbcf5bd5c6c3fe0923fbe26eb38b5fd_l.png",
  "detail_url": "https://local.pokemon.jp/manhole/desc/83/"
 },
 {
  "manhole_no": "84",
  "pref_name": "鳥取県",
  "city": "南部町",
  "address": "鳥取県南部町鶴田110",
  "lat": "35.347474",
  "lng": "133.423398",
  "pokemon": [
   "サンド",
   "ナックラー"
  ],
  "zukan_ids": [
   "027",
   "328"
  ],
  "image": "https://local.pokemon.jp/img/p/manhole/d3e1aa315a234beed33b5fdf0e57273f_l.png",
  "detail_url": "https://local.pokemon.jp/manhole/desc/84/"
 },
 {
  "manhole_no": "85",
  "pref_name": "鳥取県",
  "city": "伯耆町",
  "address": "鳥取県伯耆町大原997-12",
  "lat": "35.383395",
  "lng": "133.458512",
  "pokemon": [
   "サンド",
   "オニゴーリ"
  ],
  "zukan_ids": [
   "027",
   "362"
  ],
  "image": "https://local.pokemon.jp/img/p/manhole/c2c30a5636c8110a39aa6c37a46833a9_l.png",
  "detail_url": "https://local.pokemon.jp/manhole/desc/85/"
 },
 {
  "manhole_no": "86",
  "pref_name": "鳥取県",
  "city": "日南町",
  "address": "鳥取県日南町生山354番地2",
  "lat": "35.170524",
  "lng": "133.31094",
  "pokemon": [
   "サンド",
   "バルビート",
   "イルミーゼ"
  ],
  "zukan_ids": [
   "027",
   "313",
   "314"
  ],
  "image": "https://local.pokemon.jp/img/p/manhole/93d997a517ea711ef84cf02652df9b5d_l.png",
  "detail_url": "https://local.pokemon.jp/manhole/desc/86/"
 },
 {
  "manhole_no": "87",
  "pref_name": "鳥取県",
  "city": "日野町",
  "address": "鳥取県日野町根雨170番地1",
  "lat": "35.24192",
  "lng": "133.441049",
  "pokemon": [
   "サンド",
   "チルット"
  ],
  "zukan_ids": [
   "027",
   "333"
  ],
  "image": "https://local.pokemon.jp/img/p/manhole/699a59ecb60c1f784eb89c546316a66c_l.png",
  "detail_url": "https://local.pokemon.jp/manhole/desc/87/"
 },
 {
  "manhole_no": "88",
  "pref_name": "福島県",
  "city": "新地町",
  "address": "福島県新地町駅前1丁目3番地",
  "lat": "37.878748",
  "lng": "140.925027",
  "pokemon": [
   "ラッキー",
   "オドシシ"
  ],
  "zukan_ids": [
   "113",
   "234"
  ],
  "image": "https://local.pokemon.jp/img/p/manhole/3551920549897ca17bd2d417b3461b56_l.png",
  "detail_url": "https://local.pokemon.jp/manhole/desc/88/"
 },
 {
  "manhole_no": "89",
  "pref_name": "福島県",
  "city": "相馬市",
  "address": "福島県相馬市尾浜字寺前111-1",
  "lat": "37.827708",
  "lng": "140.963244",
  "pokemon": [
   "ラッキー",
   "ポニータ"
  ],
  "zukan_ids": [
   "113",
   "077"
  ],
  "image": "https://local.pokemon.jp/img/p/manhole/4b56f3842cbe9066c7d01f0c9df96c92_l.png",
  "detail_url": "https://local.pokemon.jp/manhole/desc/89/"
 },
 {
  "manhole_no": "90",
  "pref_name": "福島県",
  "city": "南相馬市",
  "address": "福島県南相馬市原町区高見町2-30-1",
  "lat": "37.63577",
  "lng": "140.983041",
  "pokemon": [
   "ラッキー",
   "ギャロップ"
  ],
  "zukan_ids": [
   "113",
   "078"
  ],
  "image": "https://local.pokemon.jp/img/p/manhole/438cf3fd7fda58f2fb64fe9a8cae6d5f_l.png",
  "detail_url": "https://local.pokemon.jp/manhole/desc/90/"
 },
 {
  "manhole_no": "91",
  "pref_name": "福島県",
  "city": "浪江町",
  "address": "福島県浪江町大字幾世橋字知命寺60（道の駅なみえ敷地内）",
  "lat": "37.496395",
  "lng": "141.000919",
  "pokemon": [
   "ラッキー"
  ],
  "zukan_ids": [
   "113"
  ],
  "image": "https://local.pokemon.jp/img/p/manhole/e0030b2398b3c23c69eeb288202d02bb_l.png",
  "detail_url": "https://local.pokemon.jp/manhole/desc/91/"
 },
 {
  "manhole_no": "92",
  "pref_name": "福島県",
  "city": "楢葉町",
  "address": "福島県楢葉町大字山田岡字大堤入22-1",
  "lat": "37.2501442",
  "lng": "140.9975789",
  "pokemon": [
   "ラッキー",
   "ラビフット"
  ],
  "zukan_ids": [
   "113",
   "814"
  ],
  "image": "https://local.pokemon.jp/img/p/manhole/912960b2605434d5780a92ab51dd92b9_l.png",
  "detail_url": "https://local.pokemon.jp/manhole/desc/92/"
 },
 {
  "manhole_no": "93",
  "pref_name": "福島県",
  "city": "いわき市",
  "address": "福島県いわき市四倉町字5-218-1",
  "lat": "37.1073084",
  "lng": "140.9932743",
  "pokemon": [
   "ラッキー",
   "キレイハナ"
  ],
  "zukan_ids": [
   "113",
   "182"
  ],
  "image": "https://local.pokemon.jp/img/p/manhole/8f4823eaabb4acedd31afc1be79c0bd8_l.png",
  "detail_url": "https://local.pokemon.jp/manhole/desc/93/"
 },
 {
  "manhole_no": "94",
  "pref_name": "福島県",
  "city": "川俣町",
  "address": "福島県川俣町大字鶴沢字東13-1",
  "lat": "37.667671",
  "lng": "140.57675",
  "pokemon": [
   "ラッキー",
   "カラサリス",
   "マユルド"
  ],
  "zukan_ids": [
   "113",
   "266",
   "268"
  ],
  "image": "https://local.pokemon.jp/img/p/manhole/b65e0102732f5ec6a2473bd0372bb6c3_l.png",
  "detail_url": "https://local.pokemon.jp/manhole/desc/94/"
 },
 {
  "manhole_no": "95",
  "pref_name": "福島県",
  "city": "田村市",
  "address": "福島県田村市滝根町菅谷字東釜山1",
  "lat": "37.344423",
  "lng": "140.674289",
  "pokemon": [
   "ラッキー",
   "ヘラクロス"
  ],
  "zukan_ids": [
   "113",
   "214"
  ],
  "image": "https://local.pokemon.jp/img/p/manhole/482de2cc901ee6970a9196ef63fcc05b_l.png",
  "detail_url": "https://local.pokemon.jp/manhole/desc/95/"
 },
 {
  "manhole_no": "96",
  "pref_name": "福島県",
  "city": "川内村",
  "address": "福島県川内村大字下川内字宮ノ下25-1",
  "lat": "37.329458",
  "lng": "140.82162",
  "pokemon": [
   "ラッキー",
   "ヨワシ",
   "サシカマス"
  ],
  "zukan_ids": [
   "113",
   "746",
   "846"
  ],
  "image": "https://local.pokemon.jp/img/p/manhole/c846e8317054bcfad601d9de4ed1bddb_l.png",
  "detail_url": "https://local.pokemon.jp/manhole/desc/96/"
 },
 {
  "manhole_no": "97",
  "pref_name": "香川県",
  "city": "宇多津町",
  "address": "香川県宇多津町浜一番丁4番地",
  "lat": "34.3134259",
  "lng": "133.8075257",
  "pokemon": [
   "ヌオー"
  ],
  "zukan_ids": [
   "195"
  ],
  "image": "https://local.pokemon.jp/img/p/manhole/46149907aafef8ebbb532d3adedfc0a6_l.png",
  "detail_url": "https://local.pokemon.jp/manhole/desc/97/"
 },
 {
  "manhole_no": "98",
  "pref_name": "東京都",
  "city": "町田市",
  "address": "東京都町田市原町田5-16",
  "lat": "35.548108",
  "lng": "139.45034",
  "pokemon": [
   "フシギダネ"
  ],
  "zukan_ids": [
   "001"
  ],
  "image": "https://local.pokemon.jp/img/p/manhole/4c77c6c7e731ed37ef071ab402d5c1bd_l.png",
  "detail_url": "https://local.pokemon.jp/manhole/desc/98/"
 },
 {
  "manhole_no": "99",
  "pref_name": "東京都",
  "city": "町田市",
  "address": "東京都町田市原町田5-16",
  "lat": "35.548171",
  "lng": "139.4513",
  "pokemon": [
   "ヒトカゲ"
  ],
  "zukan_ids": [
   "004"
  ],
  "image": "https://local.pokemon.jp/img/p/manhole/5a62f4b93b6a63de11a8f9ff794e48ca_l.png",
  "detail_url": "https://local.pokemon.jp/manhole/desc/99/"
 },
 {
  "manhole_no": "100",
  "pref_name": "東京都",
  "city": "町田市",
  "address": "東京都町田市原町田5-16",
  "lat": "35.545302",
  "lng": "139.45501",
  "pokemon": [
   "ゼニガメ"
  ],
  "zukan_ids": [
   "007"
  ],
  "image": "https://local.pokemon.jp/img/p/manhole/6f89f0fea8421c663d939f07d9d3e170_l.png",
  "detail_url": "https://local.pokemon.jp/manhole/desc/100/"
 },
 {
  "manhole_no": "101",
  "pref_name": "東京都",
  "city": "町田市",
  "address": "東京都町田市原町田5-16",
  "lat": "35.546111",
  "lng": "139.45436",
  "pokemon": [
   "ナゾノクサ",
   "ビードル",
   "キャタピー"
  ],
  "zukan_ids": [
   "043",
   "013",
   "010"
  ],
  "image": "https://local.pokemon.jp/img/p/manhole/f440e59f4dc8e8eb3d6dbc063c121101_l.png",
  "detail_url": "https://local.pokemon.jp/manhole/desc/101/"
 },
 {
  "manhole_no": "102",
  "pref_name": "東京都",
  "city": "町田市",
  "address": "東京都町田市原町田5-16",
  "lat": "35.545645",
  "lng": "139.45488",
  "pokemon": [
   "ポッポ",
   "コラッタ"
  ],
  "zukan_ids": [
   "016",
   "019"
  ],
  "image": "https://local.pokemon.jp/img/p/manhole/0a991953b4543cb86f11bc3581aae7d1_l.png",
  "detail_url": "https://local.pokemon.jp/manhole/desc/102/"
 },
 {
  "manhole_no": "103",
  "pref_name": "東京都",
  "city": "町田市",
  "address": "東京都町田市原町田5-16",
  "lat": "35.546713",
  "lng": "139.45398",
  "pokemon": [
   "ニョロモ"
  ],
  "zukan_ids": [
   "060"
  ],
  "image": "https://local.pokemon.jp/img/p/manhole/5ad8fe31b6a39f7b0d1dcbc4d366b54b_l.png",
  "detail_url": "https://local.pokemon.jp/manhole/desc/103/"
 },
 {
  "manhole_no": "104",
  "pref_name": "滋賀県",
  "city": "大津市",
  "address": "滋賀県大津市島の関14",
  "lat": "35.0102",
  "lng": "135.8699",
  "pokemon": [
   "ギャラドス"
  ],
  "zukan_ids": [
   "130"
  ],
  "image": "https://local.pokemon.jp/img/p/manhole/e70ea99b7ee9eedea0e19e6cebe5d895_l.png",
  "detail_url": "https://local.pokemon.jp/manhole/desc/104/"
 },
 {
  "manhole_no": "105",
  "pref_name": "滋賀県",
  "city": "大津市",
  "address": "滋賀県大津市由美浜",
  "lat": "34.9981",
  "lng": "135.8946",
  "pokemon": [
   "ギャラドス"
  ],
  "zukan_ids": [
   "130"
  ],
  "image": "https://local.pokemon.jp/img/p/manhole/d457b0b0d22eb88c9ef87d755c435ee0_l.png",
  "detail_url": "https://local.pokemon.jp/manhole/desc/105/"
 },
 {
  "manhole_no": "106",
  "pref_name": "鳥取県",
  "city": "智頭町",
  "address": "鳥取県智頭町大字智頭2067-1",
  "lat": "35.265428",
  "lng": "134.226103",
  "pokemon": [
   "サンド",
   "サンドパン",
   "ウソッキー"
  ],
  "zukan_ids": [
   "027",
   "028",
   "185"
  ],
  "image": "https://local.pokemon.jp/img/p/manhole/9124edb433debfc805f8e3dcf81142ef_l.png",
  "detail_url": "https://local.pokemon.jp/manhole/desc/106/"
 },
 {
  "manhole_no": "107",
  "pref_name": "鳥取県",
  "city": "八頭町",
  "address": "鳥取県八頭町徳丸625",
  "lat": "35.366456",
  "lng": "134.339426",
  "pokemon": [],
  "zukan_ids": [],
  "image": "https://local.pokemon.jp/img/p/manhole/e4cc762f5c45d2e3b1c89fe016cad306_l.png",
  "detail_url": "https://local.pokemon.jp/manhole/desc/107/"
 },
 {
  "manhole_no": "108",
  "pref_name": "鳥取県",
  "city": "北栄町",
  "address": "鳥取県北栄町田井488-1",
  "lat": "35.49924",
  "lng": "133.81794",
  "pokemon": [
   "サンド"
  ],
  "zukan_ids": [
   "027"
  ],
  "image": "https://local.pokemon.jp/img/p/manhole/15da1d7d96977b140743c9ceb0c19a56_l.png",
  "detail_url": "https://local.pokemon.jp/manhole/desc/108/"
 },
 {
  "manhole_no": "109",
  "pref_name": "鳥取県",
  "city": "日吉津村",
  "address": "鳥取県日吉津村大字日吉津930番地",
  "lat": "35.441126",
  "lng": "133.379578",
  "pokemon": [
   "サンド",
   "メタモン"
  ],
  "zukan_ids": [
   "027",
   "132"
  ],
  "image": "https://local.pokemon.jp/img/p/manhole/3af8acc5e98898f553ef0a9d3472dd75_l.png",
  "detail_url": "https://local.pokemon.jp/manhole/desc/109/"
 },
 {
  "manhole_no": "110",
  "pref_name": "鳥取県",
  "city": "江府町",
  "address": "鳥取県江府町佐川908-3",
  "lat": "35.295841",
  "lng": "133.474089",
  "pokemon": [
   "サンド"
  ],
  "zukan_ids": [
   "027"
  ],
  "image": "https://local.pokemon.jp/img/p/manhole/14cce541fd36605c5e7663e88d87aaa7_l.png",
  "detail_url": "https://local.pokemon.jp/manhole/desc/110/"
 },
 {
  "manhole_no": "111",
  "pref_name": "宮崎県",
  "city": "宮崎市",
  "address": "宮崎県宮崎市大字加江田7275-1",
  "lat": "31.807505",
  "lng": "131.457839",
  "pokemon": [
   "ナッシー",
   "ポワルン"
  ],
  "zukan_ids": [
   "103",
   "351"
  ],
  "image": "https://local.pokemon.jp/img/p/manhole/4df805be8a64d2c988d992788be19a9b_l.png",
  "detail_url": "https://local.pokemon.jp/manhole/desc/111/"
 },
 {
  "manhole_no": "112",
  "pref_name": "宮崎県",
  "city": "都城市",
  "address": "宮崎県都城市天神町3",
  "lat": "31.725213",
  "lng": "131.0661894",
  "pokemon": [
   "メテノ"
  ],
  "zukan_ids": [
   "774"
  ],
  "image": "https://local.pokemon.jp/img/p/manhole/669e4e9f0164e147c365f0fa159d5186_l.png",
  "detail_url": "https://local.pokemon.jp/manhole/desc/112/"
 },
 {
  "manhole_no": "113",
  "pref_name": "宮崎県",
  "city": "延岡市",
  "address": "宮崎県延岡市北浦町古江3337-1",
  "lat": "32.684711",
  "lng": "131.801103",
  "pokemon": [
   "ナッシー"
  ],
  "zukan_ids": [
   "103"
  ],
  "image": "https://local.pokemon.jp/img/p/manhole/3a5e9189da60b8c54d2ccdbd184dc9dd_l.png",
  "detail_url": "https://local.pokemon.jp/manhole/desc/113/"
 },
 {
  "manhole_no": "114",
  "pref_name": "宮崎県",
  "city": "日南市",
  "address": "宮崎県日南市材木町1-10",
  "lat": "31.58793",
  "lng": "131.4017058",
  "pokemon": [
   "ダイノーズ"
  ],
  "zukan_ids": [
   "476"
  ],
  "image": "https://local.pokemon.jp/img/p/manhole/8ce155eced18eb9355d00e77741e924b_l.png",
  "detail_url": "https://local.pokemon.jp/manhole/desc/114/"
 },
 {
  "manhole_no": "115",
  "pref_name": "宮崎県",
  "city": "小林市",
  "address": "宮崎県小林市野尻町東麓5160番地",
  "lat": "31.957420",
  "lng": "131.126410",
  "pokemon": [
   "ナッシー",
   "モクロー"
  ],
  "zukan_ids": [
   "103",
   "722"
  ],
  "image": "https://local.pokemon.jp/img/p/manhole/0dc396d7b4e206b302245cb286cb828c_l.png",
  "detail_url": "https://local.pokemon.jp/manhole/desc/115/"
 },
 {
  "manhole_no": "116",
  "pref_name": "宮崎県",
  "city": "日向市",
  "address": "宮崎県日向市上町10736番15",
  "lat": "32.4253924",
  "lng": "131.6277364",
  "pokemon": [
   "ナッシー"
  ],
  "zukan_ids": [
   "103"
  ],
  "image": "https://local.pokemon.jp/img/p/manhole/cce5f8178d3186bff628ad5efe8e9962_l.png",
  "detail_url": "https://local.pokemon.jp/manhole/desc/116/"
 },
 {
  "manhole_no": "117",
  "pref_name": "宮崎県",
  "city": "串間市",
  "address": "宮崎県串間市大字大納42-3",
  "lat": "31.36627",
  "lng": "131.332809",
  "pokemon": [
   "ナッシー"
  ],
  "zukan_ids": [
   "103"
  ],
  "image": "https://local.pokemon.jp/img/p/manhole/eb72ab472d06b001ae7e522937fda3b7_l.png",
  "detail_url": "https://local.pokemon.jp/manhole/desc/117/"
 },
 {
  "manhole_no": "118",
  "pref_name": "宮崎県",
  "city": "西都市",
  "address": "宮崎県西都市小野崎1丁目77番地",
  "lat": "32.106625",
  "lng": "131.404508",
  "pokemon": [
   "ナッシー",
   "キマワリ"
  ],
  "zukan_ids": [
   "103",
   "192"
  ],
  "image": "https://local.pokemon.jp/img/p/manhole/40deb7e698a707b7ae456f46634f6a14_l.png",
  "detail_url": "https://local.pokemon.jp/manhole/desc/118/"
 },
 {
  "manhole_no": "119",
  "pref_name": "宮崎県",
  "city": "えびの市",
  "address": "宮崎県えびの市大字永山1006番地1",
  "lat": "32.050305",
  "lng": "130.80595",
  "pokemon": [
   "ナッシー",
   "コータス"
  ],
  "zukan_ids": [
   "103",
   "324"
  ],
  "image": "https://local.pokemon.jp/img/p/manhole/c66068946bb57f85df1cc9221816f761_l.png",
  "detail_url": "https://local.pokemon.jp/manhole/desc/119/"
 },
 {
  "manhole_no": "120",
  "pref_name": "宮城県",
  "city": "白石市",
  "address": "宮城県白石市益岡町1-16",
  "lat": "38.002511",
  "lng": "140.61735",
  "pokemon": [
   "ラプラス",
   "クスネ"
  ],
  "zukan_ids": [
   "131",
   "827"
  ],
  "image": "https://local.pokemon.jp/img/p/manhole/d86f9fbdc323ccf8a44a1cc61f14cf5a_l.png",
  "detail_url": "https://local.pokemon.jp/manhole/desc/120/"
 },
 {
  "manhole_no": "121",
  "pref_name": "宮城県",
  "city": "角田市",
  "address": "宮城県角田市枝野字北島81-1",
  "lat": "37.968694",
  "lng": "140.807077",
  "pokemon": [
   "ラプラス",
   "ラティアス"
  ],
  "zukan_ids": [
   "131",
   "380"
  ],
  "image": "https://local.pokemon.jp/img/p/manhole/8773aebd30abe08aa9ad070610b62d93_l.png",
  "detail_url": "https://local.pokemon.jp/manhole/desc/121/"
 },
 {
  "manhole_no": "122",
  "pref_name": "宮城県",
  "city": "登米市",
  "address": "宮城県登米市米山町字桜岡貝待井581-2",
  "lat": "38.616649",
  "lng": "141.235491",
  "pokemon": [
   "ラプラス",
   "ハスボー"
  ],
  "zukan_ids": [
   "131",
   "270"
  ],
  "image": "https://local.pokemon.jp/img/p/manhole/0276a1166ecab2b87231d3556c765167_l.png",
  "detail_url": "https://local.pokemon.jp/manhole/desc/122/"
 },
 {
  "manhole_no": "123",
  "pref_name": "宮城県",
  "city": "栗原市",
  "address": "宮城県栗原市花山字本沢北ノ前112-1",
  "lat": "38.794479",
  "lng": "140.844403",
  "pokemon": [
   "ラプラス",
   "コアルヒー"
  ],
  "zukan_ids": [
   "131",
   "580"
  ],
  "image": "https://local.pokemon.jp/img/p/manhole/495aa4a82e4831df7c4df483ec3818a8_l.png",
  "detail_url": "https://local.pokemon.jp/manhole/desc/123/"
 },
 {
  "manhole_no": "124",
  "pref_name": "宮城県",
  "city": "大崎市",
  "address": "宮城県大崎市古川駅前大通１丁目５　古川駅前",
  "lat": "38.571356",
  "lng": "140.967465",
  "pokemon": [
   "ラプラス",
   "ダグトリオ",
   "オニスズメ"
  ],
  "zukan_ids": [
   "131",
   "051",
   "021"
  ],
  "image": "https://local.pokemon.jp/img/p/manhole/60a517309907d70d3227450081b4ca08_l.png",
  "detail_url": "https://local.pokemon.jp/manhole/desc/124/"
 },
 {
  "manhole_no": "125",
  "pref_name": "宮城県",
  "city": "富谷市",
  "address": "宮城県富谷市富谷新町111",
  "lat": "38.398336",
  "lng": "140.8875",
  "pokemon": [
   "ラプラス",
   "ブルー"
  ],
  "zukan_ids": [
   "131",
   "209"
  ],
  "image": "https://local.pokemon.jp/img/p/manhole/eb65307347f95b410b10f6de91169728_l.png",
  "detail_url": "https://local.pokemon.jp/manhole/desc/125/"
 },
 {
  "manhole_no": "126",
  "pref_name": "宮城県",
  "city": "蔵王町",
  "address": "宮城県蔵王町遠刈田温泉仲町34",
  "lat": "38.123663",
  "lng": "140.577192",
  "pokemon": [
   "ラプラス",
   "ユキノオー"
  ],
  "zukan_ids": [
   "131",
   "460"
  ],
  "image": "https://local.pokemon.jp/img/p/manhole/e293e09c17892a05563f1b2726ed2877_l.png",
  "detail_url": "https://local.pokemon.jp/manhole/desc/126/"
 },
 {
  "manhole_no": "127",
  "pref_name": "宮城県",
  "city": "七ヶ宿町",
  "address": "宮城県七ヶ宿町上野8‐1",
  "lat": "37.982523",
  "lng": "140.46662",
  "pokemon": [
   "ラプラス",
   "ビーダル"
  ],
  "zukan_ids": [
   "131",
   "400"
  ],
  "image": "https://local.pokemon.jp/img/p/manhole/e57d517a9ceb4985880cf3dc6d58b304_l.png",
  "detail_url": "https://local.pokemon.jp/manhole/desc/127/"
 },
 {
  "manhole_no": "128",
  "pref_name": "宮城県",
  "city": "大河原町",
  "address": "宮城県大河原町大谷字町向116-26地先",
  "lat": "38.0485032",
  "lng": "140.738089",
  "pokemon": [
   "ラプラス",
   "チェリム"
  ],
  "zukan_ids": [
   "131",
   "421"
  ],
  "image": "https://local.pokemon.jp/img/p/manhole/b842dfc9874d2e09445e1fc3f38ad9ac_l.png",
  "detail_url": "https://local.pokemon.jp/manhole/desc/128/"
 },
 {
  "manhole_no": "129",
  "pref_name": "宮城県",
  "city": "村田町",
  "address": "宮城県村田町大字村田字北塩内41",
  "lat": "38.119071",
  "lng": "140.717821",
  "pokemon": [
   "ラプラス",
   "ベロベルト"
  ],
  "zukan_ids": [
   "131",
   "463"
  ],
  "image": "https://local.pokemon.jp/img/p/manhole/a7f0559fbfff47ad99d14e2013f91d5c_l.png",
  "detail_url": "https://local.pokemon.jp/manhole/desc/129/"
 },
 {
  "manhole_no": "130",
  "pref_name": "宮城県",
  "city": "柴田町",
  "address": "宮城県柴田町船岡中央1丁目1-1",
  "lat": "38.059143",
  "lng": "140.768239",
  "pokemon": [
   "ラプラス",
   "フラベベ"
  ],
  "zukan_ids": [
   "131",
   "669"
  ],
  "image": "https://local.pokemon.jp/img/p/manhole/db51e7b93287a6d4f02f087a430671d5_l.png",
  "detail_url": "https://local.pokemon.jp/manhole/desc/130/"
 },
 {
  "manhole_no": "131",
  "pref_name": "宮城県",
  "city": "川崎町",
  "address": "宮城県川崎町前川字裏丁175-1",
  "lat": "38.177534",
  "lng": "140.643653",
  "pokemon": [
   "ラプラス"
  ],
  "zukan_ids": [
   "131"
  ],
  "image": "https://local.pokemon.jp/img/p/manhole/8d71ae197fd04fb3260e7d1a0696b39d_l.png",
  "detail_url": "https://local.pokemon.jp/manhole/desc/131/"
 },
 {
  "manhole_no": "132",
  "pref_name": "宮城県",
  "city": "丸森町",
  "address": "宮城県丸森町字町東77-1",
  "lat": "37.913873",
  "lng": "140.762531",
  "pokemon": [
   "ラプラス",
   "ニャース",
   "ニャスパー"
  ],
  "zukan_ids": [
   "131",
   "052",
   "677"
  ],
  "image": "https://local.pokemon.jp/img/p/manhole/08419931d6fb8bc4d905064bbf5ac63f_l.png",
  "detail_url": "https://local.pokemon.jp/manhole/desc/132/"
 },
 {
  "manhole_no": "133",
  "pref_name": "宮城県",
  "city": "大和町",
  "address": "宮城県大和町吉岡まほろば一丁目1-1前",
  "lat": "38.437364",
  "lng": "140.885648",
  "pokemon": [
   "ラプラス",
   "タマゲタケ",
   "ドダイトス"
  ],
  "zukan_ids": [
   "131",
   "590",
   "389"
  ],
  "image": "https://local.pokemon.jp/img/p/manhole/6de105f2caa9cb35a27919fff3c43711_l.png",
  "detail_url": "https://local.pokemon.jp/manhole/desc/133/"
 },
 {
  "manhole_no": "134",
  "pref_name": "宮城県",
  "city": "大郷町",
  "address": "宮城県大郷町中村字北浦51-6",
  "lat": "38.424016",
  "lng": "140.992673",
  "pokemon": [
   "ラプラス",
   "チュリネ"
  ],
  "zukan_ids": [
   "131",
   "548"
  ],
  "image": "https://local.pokemon.jp/img/p/manhole/e4d64849c631f1c55792c162210f83ca_l.png",
  "detail_url": "https://local.pokemon.jp/manhole/desc/134/"
 },
 {
  "manhole_no": "135",
  "pref_name": "宮城県",
  "city": "大衡村",
  "address": "宮城県大衡村大衡字鐙沢12-2",
  "lat": "38.46943814",
  "lng": "140.8902292",
  "pokemon": [
   "ラプラス",
   "プルリル",
   "ラブカス"
  ],
  "zukan_ids": [
   "131",
   "592",
   "370"
  ],
  "image": "https://local.pokemon.jp/img/p/manhole/a6650f6580df0e0e5debb154e1d26824_l.png",
  "detail_url": "https://local.pokemon.jp/manhole/desc/135/"
 },
 {
  "manhole_no": "136",
  "pref_name": "宮城県",
  "city": "色麻町",
  "address": "宮城県色麻町四竃字東原1-12",
  "lat": "38.530136",
  "lng": "140.861420",
  "pokemon": [
   "ラプラス",
   "ハスブレロ"
  ],
  "zukan_ids": [
   "131",
   "271"
  ],
  "image": "https://local.pokemon.jp/img/p/manhole/f153fccd4c39fd161721923ee9a1b1db_l.png",
  "detail_url": "https://local.pokemon.jp/manhole/desc/136/"
 },
 {
  "manhole_no": "137",
  "pref_name": "宮城県",
  "city": "加美町",
  "address": "宮城県加美町味ヶ袋薬莱原1-76",
  "lat": "38.57215",
  "lng": "140.72859",
  "pokemon": [
   "ラプラス",
   "ロゼリア"
  ],
  "zukan_ids": [
   "131",
   "315"
  ],
  "image": "https://local.pokemon.jp/img/p/manhole/122780b137abcc24c9987cd2842f4e9e_l.png",
  "detail_url": "https://local.pokemon.jp/manhole/desc/137/"
 },
 {
  "manhole_no": "138",
  "pref_name": "宮城県",
  "city": "涌谷町",
  "address": "宮城県涌谷町字新町裏110",
  "lat": "38.5392702",
  "lng": "141.1267433",
  "pokemon": [
   "ラプラス",
   "バンバドロ"
  ],
  "zukan_ids": [
   "131",
   "750"
  ],
  "image": "https://local.pokemon.jp/img/p/manhole/f1eb53fbcfe726de54e319a9741feed6_l.png",
  "detail_url": "https://local.pokemon.jp/manhole/desc/138/"
 },
 {
  "manhole_no": "139",
  "pref_name": "宮城県",
  "city": "美里町",
  "address": "宮城県美里町木間塚原田5",
  "lat": "38.489061",
  "lng": "141.133053",
  "pokemon": [
   "ラプラス",
   "ドードー",
   "ドードリオ"
  ],
  "zukan_ids": [
   "131",
   "084",
   "085"
  ],
  "image": "https://local.pokemon.jp/img/p/manhole/e491789809d4a47d823bfe69df54712c_l.png",
  "detail_url": "https://local.pokemon.jp/manhole/desc/139/"
 },
 {
  "manhole_no": "140",
  "pref_name": "北海道",
  "city": "苫小牧市",
  "address": "北海道苫小牧市末広町3丁目1",
  "lat": "42.635755",
  "lng": "141.61009",
  "pokemon": [
   "ロコン",
   "キュウコン"
  ],
  "zukan_ids": [
   "037",
   "038"
  ],
  "image": "https://local.pokemon.jp/img/p/manhole/d0fd3269d1c6446d47a5d73e39c3273c_l.png",
  "detail_url": "https://local.pokemon.jp/manhole/desc/140/"
 },
 {
  "manhole_no": "141",
  "pref_name": "北海道",
  "city": "三笠市",
  "address": "北海道三笠市幾春別錦町1-212-1",
  "lat": "43.2613165",
  "lng": "141.9626673",
  "pokemon": [
   "ロコン",
   "オムナイト",
   "ズガイドス"
  ],
  "zukan_ids": [
   "037",
   "138",
   "408"
  ],
  "image": "https://local.pokemon.jp/img/p/manhole/37eb2bacbb680049ab0ce47cd56cb080_l.png",
  "detail_url": "https://local.pokemon.jp/manhole/desc/141/"
 },
 {
  "manhole_no": "142",
  "pref_name": "北海道",
  "city": "上富良野町",
  "address": "北海道上富良野町東1線北27号",
  "lat": "43.462246",
  "lng": "142.479068",
  "pokemon": [
   "エネコロロ"
  ],
  "zukan_ids": [
   "301"
  ],
  "image": "https://local.pokemon.jp/img/p/manhole/333446f14d9d7487fd1051ed1a5564d8_l.png",
  "detail_url": "https://local.pokemon.jp/manhole/desc/142/"
 },
 {
  "manhole_no": "143",
  "pref_name": "北海道",
  "city": "剣淵町",
  "address": "北海道剣淵町緑町15-3",
  "lat": "44.1000303",
  "lng": "142.3593096",
  "pokemon": [
   "ヒトツキ"
  ],
  "zukan_ids": [
   "679"
  ],
  "image": "https://local.pokemon.jp/img/p/manhole/130ae2f0d814df1b0a14c36032523a85_l.png",
  "detail_url": "https://local.pokemon.jp/manhole/desc/143/"
 },
 {
  "manhole_no": "144",
  "pref_name": "新潟県",
  "city": "小千谷市",
  "address": "新潟県小千谷市城内2-7-5",
  "lat": "37.314216",
  "lng": "138.794792",
  "pokemon": [
   "コイキング"
  ],
  "zukan_ids": [
   "129"
  ],
  "image": "https://local.pokemon.jp/img/p/manhole/cb0b83a72c4a02d3828408438fe69c79_l.png",
  "detail_url": "https://local.pokemon.jp/manhole/desc/144/"
 },
 {
  "manhole_no": "145",
  "pref_name": "新潟県",
  "city": "小千谷市",
  "address": "新潟県小千谷市東栄1-1付近",
  "lat": "37.309883",
  "lng": "138.812939",
  "pokemon": [
   "コイキング"
  ],
  "zukan_ids": [
   "129"
  ],
  "image": "https://local.pokemon.jp/img/p/manhole/b8e14abca7704ade92d80850c539bfa8_l.png",
  "detail_url": "https://local.pokemon.jp/manhole/desc/145/"
 },
 {
  "manhole_no": "146",
  "pref_name": "新潟県",
  "city": "小千谷市",
  "address": "新潟県小千谷市小千谷市城内1-8-22",
  "lat": "37.311028",
  "lng": "138.795653",
  "pokemon": [
   "コイキング",
   "ヒンバス"
  ],
  "zukan_ids": [
   "129",
   "349"
  ],
  "image": "https://local.pokemon.jp/img/p/manhole/1eb3ac5b96b69515307e7b8d461b83b7_l.png",
  "detail_url": "https://local.pokemon.jp/manhole/desc/146/"
 },
 {
  "manhole_no": "147",
  "pref_name": "新潟県",
  "city": "小千谷市",
  "address": "新潟県小千谷市小千谷市大字桜町4915",
  "lat": "37.314301",
  "lng": "138.7835",
  "pokemon": [
   "コイキング",
   "ピジョン"
  ],
  "zukan_ids": [
   "129",
   "017"
  ],
  "image": "https://local.pokemon.jp/img/p/manhole/1779749989a248a4d80438774bd31c5c_l.png",
  "detail_url": "https://local.pokemon.jp/manhole/desc/147/"
 },
 {
  "manhole_no": "148",
  "pref_name": "奈良県",
  "city": "斑鳩町",
  "address": "奈良県斑鳩町興留7丁目3番地内",
  "lat": "34.60189",
  "lng": "135.73917",
  "pokemon": [
   "ドータクン",
   "バオッキー"
  ],
  "zukan_ids": [
   "437",
   "514"
  ],
  "image": "https://local.pokemon.jp/img/p/manhole/8c606a972fea1746e45dea9cf3f87c9e_l.png",
  "detail_url": "https://local.pokemon.jp/manhole/desc/148/"
 },
 {
  "manhole_no": "149",
  "pref_name": "奈良県",
  "city": "斑鳩町",
  "address": "奈良県斑鳩町興留5丁目5番28号",
  "lat": "34.60474",
  "lng": "135.7376",
  "pokemon": [
   "マダツボミ",
   "ガーディ"
  ],
  "zukan_ids": [
   "069",
   "058"
  ],
  "image": "https://local.pokemon.jp/img/p/manhole/d3e08e12b17d3ff3befcd5225d3af30d_l.png",
  "detail_url": "https://local.pokemon.jp/manhole/desc/149/"
 },
 {
  "manhole_no": "150",
  "pref_name": "奈良県",
  "city": "斑鳩町",
  "address": "奈良県斑鳩町興留2丁目1番地内",
  "lat": "34.60827",
  "lng": "135.73769",
  "pokemon": [
   "ブビィ",
   "チリーン"
  ],
  "zukan_ids": [
   "240",
   "358"
  ],
  "image": "https://local.pokemon.jp/img/p/manhole/138c801dc7696711d46521e013d6d7c3_l.png",
  "detail_url": "https://local.pokemon.jp/manhole/desc/150/"
 },
 {
  "manhole_no": "151",
  "pref_name": "奈良県",
  "city": "斑鳩町",
  "address": "奈良県斑鳩町法隆寺南1丁目2番地内",
  "lat": "34.60826",
  "lng": "135.73755",
  "pokemon": [
   "ヒノヤコマ",
   "シキジカ"
  ],
  "zukan_ids": [
   "662",
   "585"
  ],
  "image": "https://local.pokemon.jp/img/p/manhole/d0bfb7bbc2a06d730b47b017a3e77cf7_l.png",
  "detail_url": "https://local.pokemon.jp/manhole/desc/151/"
 },
 {
  "manhole_no": "152",
  "pref_name": "奈良県",
  "city": "斑鳩町",
  "address": "奈良県斑鳩町法隆寺1丁目8番25号",
  "lat": "34.60983",
  "lng": "135.73529",
  "pokemon": [
   "エンテイ"
  ],
  "zukan_ids": [
   "244"
  ],
  "image": "https://local.pokemon.jp/img/p/manhole/cf516896b4b7eb0cad8e8e3eeebbc99f_l.png",
  "detail_url": "https://local.pokemon.jp/manhole/desc/152/"
 },
 {
  "manhole_no": "153",
  "pref_name": "東京都",
  "city": "小笠原村",
  "address": "東京都小笠原村父島字東町",
  "lat": "27.094863",
  "lng": "142.194033",
  "pokemon": [
   "フシギバナ"
  ],
  "zukan_ids": [
   "003"
  ],
  "image": "https://local.pokemon.jp/img/p/manhole/f8bada1702ac9b24058746e324095bac_l.png",
  "detail_url": "https://local.pokemon.jp/manhole/desc/153/"
 },
 {
  "manhole_no": "154",
  "pref_name": "東京都",
  "city": "小笠原村",
  "address": "東京都小笠原村父島字東町",
  "lat": "27.094708",
  "lng": "142.193279",
  "pokemon": [
   "リザードン"
  ],
  "zukan_ids": [
   "006"
  ],
  "image": "https://local.pokemon.jp/img/p/manhole/12cfb1b31e8a73d64c0467c702e420f7_l.png",
  "detail_url": "https://local.pokemon.jp/manhole/desc/154/"
 },
 {
  "manhole_no": "155",
  "pref_name": "東京都",
  "city": "小笠原村",
  "address": "東京都小笠原村父島字東町",
  "lat": "27.094596",
  "lng": "142.192781",
  "pokemon": [
   "カメックス"
  ],
  "zukan_ids": [
   "009"
  ],
  "image": "https://local.pokemon.jp/img/p/manhole/a0a9f2d7186f56fedadabc010c395e83_l.png",
  "detail_url": "https://local.pokemon.jp/manhole/desc/155/"
 },
 {
  "manhole_no": "156",
  "pref_name": "東京都",
  "city": "小笠原村",
  "address": "東京都小笠原村父島字東町",
  "lat": "27.09448",
  "lng": "142.19235",
  "pokemon": [
   "ミュウ"
  ],
  "zukan_ids": [
   "151"
  ],
  "image": "https://local.pokemon.jp/img/p/manhole/e7ddf7adbf8b01ad1e4c6ffd6c931352_l.png",
  "detail_url": "https://local.pokemon.jp/manhole/desc/156/"
 },
 {
  "manhole_no": "157",
  "pref_name": "青森県",
  "city": "八戸市",
  "address": "青森県八戸市大字鮫町鮫付近",
  "lat": "40.537937",
  "lng": "141.558034",
  "pokemon": [
   "イシツブテ",
   "キャモメ"
  ],
  "zukan_ids": [
   "074",
   "278"
  ],
  "image": "https://local.pokemon.jp/img/p/manhole/980e5418dbdef7582b162d577ad77cf7_l.png",
  "detail_url": "https://local.pokemon.jp/manhole/desc/157/"
 },
 {
  "manhole_no": "158",
  "pref_name": "青森県",
  "city": "階上町",
  "address": "青森県階上町大字道仏字耳ケ吠3-3",
  "lat": "40.458437",
  "lng": "141.608335",
  "pokemon": [
   "ナマコブシ",
   "バチンウニ",
   "ユキハミ"
  ],
  "zukan_ids": [
   "771",
   "871",
   "872"
  ],
  "image": "https://local.pokemon.jp/img/p/manhole/1723f48f98735fe88693db2547152835_l.png",
  "detail_url": "https://local.pokemon.jp/manhole/desc/158/"
 },
 {
  "manhole_no": "159",
  "pref_name": "京都府",
  "city": "京都市",
  "address": "京都府京都市右京区嵯峨中ノ島町",
  "lat": "35.011863",
  "lng": "135.678745",
  "pokemon": [
   "ホウオウ"
  ],
  "zukan_ids": [
   "250"
  ],
  "image": "https://local.pokemon.jp/img/p/manhole/dadd75c86a5e66bf5392ba13716c2dfe_l.png",
  "detail_url": "https://local.pokemon.jp/manhole/desc/159/"
 },
 {
  "manhole_no": "160",
  "pref_name": "京都府",
  "city": "京都市",
  "address": "京都府京都市東山区円山町",
  "lat": "35.00337",
  "lng": "135.780573",
  "pokemon": [
   "ピチュー",
   "ピィ",
   "ププリン"
  ],
  "zukan_ids": [
   "172",
   "173",
   "174"
  ],
  "image": "https://local.pokemon.jp/img/p/manhole/61ed5a9f280a92b6a49269897c80870c_l.png",
  "detail_url": "https://local.pokemon.jp/manhole/desc/160/"
 },
 {
  "manhole_no": "161",
  "pref_name": "京都府",
  "city": "京都市",
  "address": "京都府京都市右京区西京極新明町",
  "lat": "34.994784",
  "lng": "135.714323",
  "pokemon": [
   "チコリータ",
   "ダーテング"
  ],
  "zukan_ids": [
   "152",
   "275"
  ],
  "image": "https://local.pokemon.jp/img/p/manhole/b6f13ec6de50c92ec0733c3a0a052095_l.png",
  "detail_url": "https://local.pokemon.jp/manhole/desc/161/"
 },
 {
  "manhole_no": "162",
  "pref_name": "京都府",
  "city": "京都市",
  "address": "京都府京都市左京区岡崎最勝寺町",
  "lat": "35.014858",
  "lng": "135.782013",
  "pokemon": [
   "ヒノアラシ",
   "ヒヒダルマ"
  ],
  "zukan_ids": [
   "155",
   "555"
  ],
  "image": "https://local.pokemon.jp/img/p/manhole/6e0c231cc1175791b00694844dc42904_l.png",
  "detail_url": "https://local.pokemon.jp/manhole/desc/162/"
 },
 {
  "manhole_no": "163",
  "pref_name": "京都府",
  "city": "京都市",
  "address": "京都府京都市下京区観喜寺町",
  "lat": "34.987804",
  "lng": "135.743538",
  "pokemon": [
   "ワニノコ",
   "マリルリ"
  ],
  "zukan_ids": [
   "158",
   "184"
  ],
  "image": "https://local.pokemon.jp/img/p/manhole/e923d93de75da9471bc1eb6b2504b721_l.png",
  "detail_url": "https://local.pokemon.jp/manhole/desc/163/"
 },
 {
  "manhole_no": "164",
  "pref_name": "宮崎県",
  "city": "三股町",
  "address": "宮崎県三股町大字樺山4421-22",
  "lat": "31.73375",
  "lng": "131.120309",
  "pokemon": [
   "ナッシー",
   "コロモリ"
  ],
  "zukan_ids": [
   "103",
   "527"
  ],
  "image": "https://local.pokemon.jp/img/p/manhole/7e8cdc1e3864f6802fe5c7c531f68074_l.png",
  "detail_url": "https://local.pokemon.jp/manhole/desc/164/"
 },
 {
  "manhole_no": "165",
  "pref_name": "宮崎県",
  "city": "高鍋町",
  "address": "宮崎県高鍋町大字蚊口浦字蚊口6259-1",
  "lat": "32.115956",
  "lng": "131.532841",
  "pokemon": [],
  "zukan_ids": [],
  "image": "https://local.pokemon.jp/img/p/manhole/7020590767375a1d51a3bb6af9b37edf_l.png",
  "detail_url": "https://local.pokemon.jp/manhole/desc/165/"
 },
 {
  "manhole_no": "166",
  "pref_name": "宮崎県",
  "city": "新富町",
  "address": "宮崎県新富町大字三納代1839（三納代広場）",
  "lat": "32.073902",
  "lng": "131.495719",
  "pokemon": [
   "マクノシタ"
  ],
  "zukan_ids": [
   "296"
  ],
  "image": "https://local.pokemon.jp/img/p/manhole/73c6c49f8aa194dcb52da6808758de16_l.png",
  "detail_url": "https://local.pokemon.jp/manhole/desc/166/"
 },
 {
  "manhole_no": "167",
  "pref_name": "宮崎県",
  "city": "木城町",
  "address": "宮崎県木城町高城１４０３−１",
  "lat": "32.1682457",
  "lng": "131.4782857",
  "pokemon": [
   "ナッシー",
   "メタモン"
  ],
  "zukan_ids": [
   "103",
   "132"
  ],
  "image": "https://local.pokemon.jp/img/p/manhole/dd75e9254b02cf00906b22ece20ed6a2_l.png",
  "detail_url": "https://local.pokemon.jp/manhole/desc/167/"
 },
 {
  "manhole_no": "168",
  "pref_name": "宮崎県",
  "city": "川南町",
  "address": "宮崎県川南町大字平田2386番地3",
  "lat": "32.191491",
  "lng": "131.528984",
  "pokemon": [
   "ナッシー",
   "ヌマクロー"
  ],
  "zukan_ids": [
   "103",
   "259"
  ],
  "image": "https://local.pokemon.jp/img/p/manhole/3da8c4d33f82dbd65c7092f4080c88ab_l.png",
  "detail_url": "https://local.pokemon.jp/manhole/desc/168/"
 },
 {
  "manhole_no": "169",
  "pref_name": "宮崎県",
  "city": "都農町",
  "address": "宮崎県都農町大字川北5129",
  "lat": "32.2609016",
  "lng": "131.5575768",
  "pokemon": [
   "ブイゼル"
  ],
  "zukan_ids": [
   "418"
  ],
  "image": "https://local.pokemon.jp/img/p/manhole/249dfc49428f58aff38f37c46131982e_l.png",
  "detail_url": "https://local.pokemon.jp/manhole/desc/169/"
 },
 {
  "manhole_no": "170",
  "pref_name": "宮崎県",
  "city": "門川町",
  "address": "宮崎県門川町大字庵川2822番地",
  "lat": "32.487021",
  "lng": "131.676733",
  "pokemon": [
   "マケンカニ"
  ],
  "zukan_ids": [
   "739"
  ],
  "image": "https://local.pokemon.jp/img/p/manhole/1d1261134ec64c046aacae63dba74c6f_l.png",
  "detail_url": "https://local.pokemon.jp/manhole/desc/170/"
 },
 {
  "manhole_no": "171",
  "pref_name": "宮崎県",
  "city": "美郷町",
  "address": "宮崎県美郷町西郷田代5812-1",
  "lat": "32.431976",
  "lng": "131.467551",
  "pokemon": [
   "ナッシー",
   "タマタマ"
  ],
  "zukan_ids": [
   "103",
   "102"
  ],
  "image": "https://local.pokemon.jp/img/p/manhole/338c34ed7b70c9a65755b2894a04ecc1_l.png",
  "detail_url": "https://local.pokemon.jp/manhole/desc/171/"
 },
 {
  "manhole_no": "172",
  "pref_name": "東京都",
  "city": "台東区上野",
  "address": "東京都台東区上野公園7-20",
  "lat": "35.716810",
  "lng": "139.776399",
  "pokemon": [
   "チゴラス",
   "ソーナノ"
  ],
  "zukan_ids": [
   "696",
   "360"
  ],
  "image": "https://local.pokemon.jp/img/p/manhole/461c1ae602ab3848aaa395fd03e5fa00_l.png",
  "detail_url": "https://local.pokemon.jp/manhole/desc/172/"
 },
 {
  "manhole_no": "173",
  "pref_name": "東京都",
  "city": "台東区上野",
  "address": "東京都台東区上野公園13-9",
  "lat": "35.717715",
  "lng": "139.775397",
  "pokemon": [
   "ヤジロン",
   "ドーミラー"
  ],
  "zukan_ids": [
   "343",
   "436"
  ],
  "image": "https://local.pokemon.jp/img/p/manhole/eb25062c31cfbbbf2e120451b3b76492_l.png",
  "detail_url": "https://local.pokemon.jp/manhole/desc/173/"
 },
 {
  "manhole_no": "174",
  "pref_name": "沖縄県",
  "city": "那覇市",
  "address": "沖縄県那覇市牧志3丁目2",
  "lat": "26.21641",
  "lng": "127.68942",
  "pokemon": [
   "ウインディ"
  ],
  "zukan_ids": [
   "059"
  ],
  "image": "https://local.pokemon.jp/img/p/manhole/38ee8e633d933570a2506d1ceba9290b_l.png",
  "detail_url": "https://local.pokemon.jp/manhole/desc/174/"
 },
 {
  "manhole_no": "175",
  "pref_name": "沖縄県",
  "city": "宜野湾市",
  "address": "沖縄県宜野湾市真志喜4-2-1",
  "lat": "26.28139",
  "lng": "127.732215",
  "pokemon": [
   "サニーゴ",
   "ラブカス"
  ],
  "zukan_ids": [
   "222",
   "370"
  ],
  "image": "https://local.pokemon.jp/img/p/manhole/130f21e980593ce7e537a81a804a1bc3_l.png",
  "detail_url": "https://local.pokemon.jp/manhole/desc/175/"
 },
 {
  "manhole_no": "176",
  "pref_name": "沖縄県",
  "city": "沖縄市",
  "address": "沖縄県沖縄市胡屋5-7-1",
  "lat": "26.32766",
  "lng": "127.803001",
  "pokemon": [
   "バチンキー",
   "ラランテス"
  ],
  "zukan_ids": [
   "811",
   "754"
  ],
  "image": "https://local.pokemon.jp/img/p/manhole/b084912808574bde91de683704e1503d_l.png",
  "detail_url": "https://local.pokemon.jp/manhole/desc/176/"
 },
 {
  "manhole_no": "177",
  "pref_name": "沖縄県",
  "city": "うるま市",
  "address": "沖縄県うるま市石川2316",
  "lat": "26.436181",
  "lng": "127.826113",
  "pokemon": [
   "ケンタロス"
  ],
  "zukan_ids": [
   "128"
  ],
  "image": "https://local.pokemon.jp/img/p/manhole/1a8c0a85ed3586e6076dac22272185d7_l.png",
  "detail_url": "https://local.pokemon.jp/manhole/desc/177/"
 },
 {
  "manhole_no": "178",
  "pref_name": "宮崎県",
  "city": "高原町",
  "address": "宮崎県高原町大字蒲牟田3-251",
  "lat": "31.907234",
  "lng": "130.960187",
  "pokemon": [
   "ナッシー",
   "ムチュール"
  ],
  "zukan_ids": [
   "103",
   "238"
  ],
  "image": "https://local.pokemon.jp/img/p/manhole/916517348882e6d81c6fd8e163ac8352_l.png",
  "detail_url": "https://local.pokemon.jp/manhole/desc/178/"
 },
 {
  "manhole_no": "179",
  "pref_name": "宮崎県",
  "city": "国富町",
  "address": "宮崎県国富町大字本庄4043-5",
  "lat": "31.988591",
  "lng": "131.321916",
  "pokemon": [
   "ゴクリン"
  ],
  "zukan_ids": [
   "316"
  ],
  "image": "https://local.pokemon.jp/img/p/manhole/73fdb713c9cec2bed36f015248b51725_l.png",
  "detail_url": "https://local.pokemon.jp/manhole/desc/179/"
 },
 {
  "manhole_no": "180",
  "pref_name": "宮崎県",
  "city": "綾町",
  "address": "宮崎県綾町大字南俣515番地",
  "lat": "31.9989753",
  "lng": "131.2537536",
  "pokemon": [
   "ナッシー",
   "ナマケロ"
  ],
  "zukan_ids": [
   "103",
   "287"
  ],
  "image": "https://local.pokemon.jp/img/p/manhole/ec206a3b8bd4d61296485b207d204370_l.png",
  "detail_url": "https://local.pokemon.jp/manhole/desc/180/"
 },
 {
  "manhole_no": "181",
  "pref_name": "宮崎県",
  "city": "西米良村",
  "address": "宮崎県西米良村大字村所260-6",
  "lat": "32.223238",
  "lng": "131.16329",
  "pokemon": [
   "ゴルーグ"
  ],
  "zukan_ids": [
   "623"
  ],
  "image": "https://local.pokemon.jp/img/p/manhole/d8eb6198c178641e316d0936fccd06e0_l.png",
  "detail_url": "https://local.pokemon.jp/manhole/desc/181/"
 },
 {
  "manhole_no": "182",
  "pref_name": "宮崎県",
  "city": "諸塚村",
  "address": "宮崎県諸塚村大字家代2640-18",
  "lat": "32.509811",
  "lng": "131.331498",
  "pokemon": [
   "ナッシー",
   "レジロック"
  ],
  "zukan_ids": [
   "103",
   "377"
  ],
  "image": "https://local.pokemon.jp/img/p/manhole/4214e59f59260308035a93441400b6fa_l.png",
  "detail_url": "https://local.pokemon.jp/manhole/desc/182/"
 },
 {
  "manhole_no": "183",
  "pref_name": "宮崎県",
  "city": "椎葉村",
  "address": "宮崎県椎葉村大字下福良1829番地57",
  "lat": "32.458153",
  "lng": "131.153831",
  "pokemon": [
   "ナッシー",
   "シンボラー"
  ],
  "zukan_ids": [
   "103",
   "561"
  ],
  "image": "https://local.pokemon.jp/img/p/manhole/a612a2a3e3d6d9a6cb7641ce25cfcdb7_l.png",
  "detail_url": "https://local.pokemon.jp/manhole/desc/183/"
 },
 {
  "manhole_no": "184",
  "pref_name": "宮崎県",
  "city": "高千穂町",
  "address": "宮崎県高千穂町大字三田井1099-1",
  "lat": "32.707748",
  "lng": "131.305889",
  "pokemon": [
   "ナッシー",
   "レジギガス"
  ],
  "zukan_ids": [
   "103",
   "486"
  ],
  "image": "https://local.pokemon.jp/img/p/manhole/ba1ab8ae9af98b080f9ed1d867cb75c9_l.png",
  "detail_url": "https://local.pokemon.jp/manhole/desc/184/"
 },
 {
  "manhole_no": "185",
  "pref_name": "宮崎県",
  "city": "日之影町",
  "address": "宮崎県日之影町大字七折8705-12",
  "lat": "32.660643",
  "lng": "131.388639",
  "pokemon": [
   "ナッシー",
   "レジスチル"
  ],
  "zukan_ids": [
   "103",
   "379"
  ],
  "image": "https://local.pokemon.jp/img/p/manhole/dbe8fa0ecdf59974cf1c01b55f7f089b_l.png",
  "detail_url": "https://local.pokemon.jp/manhole/desc/185/"
 },
 {
  "manhole_no": "186",
  "pref_name": "宮崎県",
  "city": "五ヶ瀬町",
  "address": "宮崎県五ヶ瀬町三ヶ所9400 Gパーク五ヶ瀬町総合公園内",
  "lat": "32.679051",
  "lng": "131.210041",
  "pokemon": [
   "ナッシー",
   "レジアイス"
  ],
  "zukan_ids": [
   "103",
   "378"
  ],
  "image": "https://local.pokemon.jp/img/p/manhole/aa92f7d136b868b5252b1fc6994ce947_l.png",
  "detail_url": "https://local.pokemon.jp/manhole/desc/186/"
 },
 {
  "manhole_no": "187",
  "pref_name": "北海道",
  "city": "函館市",
  "address": "北海道函館市青柳町17",
  "lat": "41.755926",
  "lng": "140.715684",
  "pokemon": [
   "トゲキッス"
  ],
  "zukan_ids": [
   "468"
  ],
  "image": "https://local.pokemon.jp/img/p/manhole/acac72c0b33b4df7f2a735443fc8eacf_l.png",
  "detail_url": "https://local.pokemon.jp/manhole/desc/187/"
 },
 {
  "manhole_no": "188",
  "pref_name": "北海道",
  "city": "小樽市",
  "address": "北海道小樽市稲穂1丁目3番8号",
  "lat": "43.195544",
  "lng": "140.998285",
  "pokemon": [],
  "zukan_ids": [],
  "image": "https://local.pokemon.jp/img/p/manhole/5a324c4217960388cb12d0c412bb2ae5_l.png",
  "detail_url": "https://local.pokemon.jp/manhole/desc/188/"
 },
 {
  "manhole_no": "189",
  "pref_name": "北海道",
  "city": "根室市",
  "address": "北海道根室市牧の内146番地243　明治公園内",
  "lat": "43.335936",
  "lng": "145.598194",
  "pokemon": [
   "バリコオル"
  ],
  "zukan_ids": [
   "866"
  ],
  "image": "https://local.pokemon.jp/img/p/manhole/ef06fc22ce5dae9e3683d8fec4a9f68e_l.png",
  "detail_url": "https://local.pokemon.jp/manhole/desc/189/"
 },
 {
  "manhole_no": "190",
  "pref_name": "北海道",
  "city": "登別市",
  "address": "北海道登別市登別市登別港町１丁目4-9",
  "lat": "42.452786",
  "lng": "141.180999",
  "pokemon": [
   "ロコン",
   "キテルグマ"
  ],
  "zukan_ids": [
   "037",
   "760"
  ],
  "image": "https://local.pokemon.jp/img/p/manhole/171f0782befe20c0ce34ea9cf2a069ef_l.png",
  "detail_url": "https://local.pokemon.jp/manhole/desc/190/"
 },
 {
  "manhole_no": "191",
  "pref_name": "北海道",
  "city": "本別町",
  "address": "北海道本別町北3丁目1-2",
  "lat": "43.125781",
  "lng": "143.613441",
  "pokemon": [
   "ロコン",
   "メタモン"
  ],
  "zukan_ids": [
   "037",
   "132"
  ],
  "image": "https://local.pokemon.jp/img/p/manhole/c196a6a082f5b38bd76fb1a6acb8b999_l.png",
  "detail_url": "https://local.pokemon.jp/manhole/desc/191/"
 },
 {
  "manhole_no": "192",
  "pref_name": "北海道",
  "city": "陸別町",
  "address": "北海道陸別町字陸別原野基線69-1",
  "lat": "43.467701",
  "lng": "143.742721",
  "pokemon": [
   "カチコール"
  ],
  "zukan_ids": [
   "712"
  ],
  "image": "https://local.pokemon.jp/img/p/manhole/3085ebc53a5477aed032335bdc1c5d7e_l.png",
  "detail_url": "https://local.pokemon.jp/manhole/desc/192/"
 },
 {
  "manhole_no": "193",
  "pref_name": "北海道",
  "city": "中標津町",
  "address": "北海道中標津町丸山2丁目1番地18",
  "lat": "43.554566",
  "lng": "144.969609",
  "pokemon": [
   "ロコン",
   "ワカシャモ"
  ],
  "zukan_ids": [
   "037",
   "256"
  ],
  "image": "https://local.pokemon.jp/img/p/manhole/690d084c832f1c94f9c765c47fb5d3b4_l.png",
  "detail_url": "https://local.pokemon.jp/manhole/desc/193/"
 },
 {
  "manhole_no": "194",
  "pref_name": "岡山県",
  "city": "倉敷市",
  "address": "岡山県倉敷市下津井田之浦1-1",
  "lat": "34.43427",
  "lng": "133.81388",
  "pokemon": [
   "ルカリオ"
  ],
  "zukan_ids": [
   "448"
  ],
  "image": "https://local.pokemon.jp/img/p/manhole/12a7f3eb91387a2de15ce4a4d07b76d9_l.png",
  "detail_url": "https://local.pokemon.jp/manhole/desc/194/"
 },
 {
  "manhole_no": "195",
  "pref_name": "岡山県",
  "city": "倉敷市",
  "address": "岡山県倉敷市中央2-6-1",
  "lat": "34.59556",
  "lng": "133.76888",
  "pokemon": [
   "ポチエナ",
   "アゲハント"
  ],
  "zukan_ids": [
   "261",
   "267"
  ],
  "image": "https://local.pokemon.jp/img/p/manhole/0fece4439cad84d032b8b5b1abe4bfbe_l.png",
  "detail_url": "https://local.pokemon.jp/manhole/desc/195/"
 },
 {
  "manhole_no": "196",
  "pref_name": "岡山県",
  "city": "倉敷市",
  "address": "岡山県倉敷市中央1-18-1",
  "lat": "34.59274",
  "lng": "133.77046",
  "pokemon": [
   "サルノリ",
   "ワタシラガ"
  ],
  "zukan_ids": [
   "810",
   "830"
  ],
  "image": "https://local.pokemon.jp/img/p/manhole/bc3943f41c55662b08fff143d35e6001_l.png",
  "detail_url": "https://local.pokemon.jp/manhole/desc/196/"
 },
 {
  "manhole_no": "197",
  "pref_name": "岡山県",
  "city": "倉敷市",
  "address": "岡山県倉敷市阿知2丁目17",
  "lat": "34.59829",
  "lng": "133.77029",
  "pokemon": [
   "ケンホロウ"
  ],
  "zukan_ids": [
   "521"
  ],
  "image": "https://local.pokemon.jp/img/p/manhole/57b32929e283717a3c17bf5694ee5331_l.png",
  "detail_url": "https://local.pokemon.jp/manhole/desc/197/"
 },
 {
  "manhole_no": "198",
  "pref_name": "福岡県",
  "city": "北九州市",
  "address": "福岡県北九州市小倉北区室町一丁目1　リバーウォーク北九州",
  "lat": "33.884982",
  "lng": "130.876213",
  "pokemon": [
   "ボスゴドラ"
  ],
  "zukan_ids": [
   "306"
  ],
  "image": "https://local.pokemon.jp/img/p/manhole/b13f6216991b853d40f37921b7b1a75c_l.png",
  "detail_url": "https://local.pokemon.jp/manhole/desc/198/"
 },
 {
  "manhole_no": "199",
  "pref_name": "福岡県",
  "city": "北九州市",
  "address": "福岡県北九州市小倉北区浅野三丁目5　あさの汐風公園",
  "lat": "33.890528",
  "lng": "130.884609",
  "pokemon": [
   "トロッゴン"
  ],
  "zukan_ids": [
   "838"
  ],
  "image": "https://local.pokemon.jp/img/p/manhole/19ddba7b284e5f5bc16a8ac6b62776d1_l.png",
  "detail_url": "https://local.pokemon.jp/manhole/desc/199/"
 },
 {
  "manhole_no": "200",
  "pref_name": "福岡県",
  "city": "北九州市",
  "address": "福岡県北九州市八幡東区東田４丁目１１",
  "lat": "33.871920",
  "lng": "130.807892",
  "pokemon": [
   "ヤミラミ",
   "ジュラルドン"
  ],
  "zukan_ids": [
   "302",
   "884"
  ],
  "image": "https://local.pokemon.jp/img/p/manhole/ffa7e3a05b778ee19eb7e1c648fab1d3_l.png",
  "detail_url": "https://local.pokemon.jp/manhole/desc/200/"
 },
 {
  "manhole_no": "201",
  "pref_name": "福岡県",
  "city": "北九州市",
  "address": "福岡県北九州市門司区港町5　門司港レトロ地区",
  "lat": "33.946285",
  "lng": "130.964119",
  "pokemon": [
   "サーナイト",
   "ルナトーン"
  ],
  "zukan_ids": [
   "282",
   "337"
  ],
  "image": "https://local.pokemon.jp/img/p/manhole/c61b90c00e7cc84c950a7c030240fc4f_l.png",
  "detail_url": "https://local.pokemon.jp/manhole/desc/201/"
 },
 {
  "manhole_no": "202",
  "pref_name": "福岡県",
  "city": "北九州市",
  "address": "福岡県北九州市門司区旧門司二丁目5　ノーフォーク広場",
  "lat": "33.957206",
  "lng": "130.96161",
  "pokemon": [
   "トロピウス"
  ],
  "zukan_ids": [
   "357"
  ],
  "image": "https://local.pokemon.jp/img/p/manhole/8bc29983cee8593f888c394b13b50b06_l.png",
  "detail_url": "https://local.pokemon.jp/manhole/desc/202/"
 },
 {
  "manhole_no": "203",
  "pref_name": "兵庫県",
  "city": "淡路市",
  "address": "兵庫県淡路市岩屋1873-1",
  "lat": "34.601828",
  "lng": "135.009441",
  "pokemon": [
   "ルギア"
  ],
  "zukan_ids": [
   "249"
  ],
  "image": "https://local.pokemon.jp/img/p/manhole/3b9a7a603fe46a8c9ca44daa6d465c4e_l.png",
  "detail_url": "https://local.pokemon.jp/manhole/desc/203/"
 },
 {
  "manhole_no": "204",
  "pref_name": "兵庫県",
  "city": "淡路市",
  "address": "兵庫県淡路市小倉177",
  "lat": "34.550436",
  "lng": "134.938094",
  "pokemon": [
   "ベイリーフ",
   "フレフワン"
  ],
  "zukan_ids": [
   "153",
   "683"
  ],
  "image": "https://local.pokemon.jp/img/p/manhole/521884db6e67a711689a534f225e5555_l.png",
  "detail_url": "https://local.pokemon.jp/manhole/desc/204/"
 },
 {
  "manhole_no": "205",
  "pref_name": "兵庫県",
  "city": "淡路市",
  "address": "兵庫県淡路市尾崎3025-1",
  "lat": "34.482151",
  "lng": "134.873103",
  "pokemon": [
   "パルシェン",
   "トリトドン"
  ],
  "zukan_ids": [
   "091",
   "423"
  ],
  "image": "https://local.pokemon.jp/img/p/manhole/8e5813792f66a65c189ff519bafd76e8_l.png",
  "detail_url": "https://local.pokemon.jp/manhole/desc/205/"
 },
 {
  "manhole_no": "206",
  "pref_name": "大阪府",
  "city": "東大阪市",
  "address": "大阪府東大阪市荒本北1丁目1番1号",
  "lat": "34.679788",
  "lng": "135.601221",
  "pokemon": [
   "コイル",
   "レアコイル"
  ],
  "zukan_ids": [
   "081",
   "082"
  ],
  "image": "https://local.pokemon.jp/img/p/manhole/8b79e350ab1d04a38f8dffc6baed16e5_l.png",
  "detail_url": "https://local.pokemon.jp/manhole/desc/206/"
 },
 {
  "manhole_no": "207",
  "pref_name": "大阪府",
  "city": "東大阪市",
  "address": "大阪府東大阪市旭町1番1号",
  "lat": "34.66771",
  "lng": "135.63989",
  "pokemon": [
   "ギアル",
   "ギギアル"
  ],
  "zukan_ids": [
   "599",
   "600"
  ],
  "image": "https://local.pokemon.jp/img/p/manhole/cd700d469950e929688fda7b763b46b9_l.png",
  "detail_url": "https://local.pokemon.jp/manhole/desc/207/"
 },
 {
  "manhole_no": "208",
  "pref_name": "大阪府",
  "city": "東大阪市",
  "address": "大阪府東大阪市東石切町2-4",
  "lat": "34.680678",
  "lng": "135.650788",
  "pokemon": [
   "エレキッド",
   "クチート"
  ],
  "zukan_ids": [
   "239",
   "303"
  ],
  "image": "https://local.pokemon.jp/img/p/manhole/82bcc43d44a0c0ce158820a770ea8abb_l.png",
  "detail_url": "https://local.pokemon.jp/manhole/desc/208/"
 },
 {
  "manhole_no": "209",
  "pref_name": "大阪府",
  "city": "東大阪市",
  "address": "大阪府東大阪市松原南1-1",
  "lat": "34.667678",
  "lng": "135.626309",
  "pokemon": [
   "ライコウ"
  ],
  "zukan_ids": [
   "243"
  ],
  "image": "https://local.pokemon.jp/img/p/manhole/d39830afa4791086bcb803f16950c7a2_l.png",
  "detail_url": "https://local.pokemon.jp/manhole/desc/209/"
 },
 {
  "manhole_no": "210",
  "pref_name": "大阪府",
  "city": "東大阪市",
  "address": "大阪府東大阪市松原南2-6",
  "lat": "34.669486",
  "lng": "135.630586",
  "pokemon": [
   "ワンパチ",
   "トゲデマル"
  ],
  "zukan_ids": [
   "835",
   "777"
  ],
  "image": "https://local.pokemon.jp/img/p/manhole/c5b049a0ebabbe4653c901d1d7d285a5_l.png",
  "detail_url": "https://local.pokemon.jp/manhole/desc/210/"
 },
 {
  "manhole_no": "211",
  "pref_name": "埼玉県",
  "city": "所沢市",
  "address": "埼玉県所沢市松郷143-3",
  "lat": "35.797482",
  "lng": "139.505528",
  "pokemon": [
   "ミニリュウ",
   "アーマーガア"
  ],
  "zukan_ids": [
   "147",
   "823"
  ],
  "image": "https://local.pokemon.jp/img/p/manhole/f2dfd29ec753fb46d12d81af9736e548_l.png",
  "detail_url": "https://local.pokemon.jp/manhole/desc/211/"
 },
 {
  "manhole_no": "212",
  "pref_name": "埼玉県",
  "city": "所沢市",
  "address": "埼玉県所沢市日吉町1",
  "lat": "35.786887",
  "lng": "139.472881",
  "pokemon": [
   "ハクリュー",
   "エアームド"
  ],
  "zukan_ids": [
   "148",
   "227"
  ],
  "image": "https://local.pokemon.jp/img/p/manhole/5296fd3ea597bbc66ac66444cd22cbf3_l.png",
  "detail_url": "https://local.pokemon.jp/manhole/desc/212/"
 },
 {
  "manhole_no": "213",
  "pref_name": "埼玉県",
  "city": "所沢市",
  "address": "埼玉県所沢市並木1-13",
  "lat": "35.798734",
  "lng": "139.471991",
  "pokemon": [
   "カイリュー"
  ],
  "zukan_ids": [
   "149"
  ],
  "image": "https://local.pokemon.jp/img/p/manhole/aeaf1d2fff879ae33fca2eb1ba4a69e8_l.png",
  "detail_url": "https://local.pokemon.jp/manhole/desc/213/"
 },
 {
  "manhole_no": "214",
  "pref_name": "北海道",
  "city": "旭川市",
  "address": "北海道旭川市神楽4条6丁目1-12",
  "lat": "43.7595958",
  "lng": "142.3485094",
  "pokemon": [
   "コオリッポ",
   "クマシュン"
  ],
  "zukan_ids": [
   "875",
   "613"
  ],
  "image": "https://local.pokemon.jp/img/p/manhole/98f049601f822ae15722cb1f18b781b0_l.png",
  "detail_url": "https://local.pokemon.jp/manhole/desc/214/"
 },
 {
  "manhole_no": "215",
  "pref_name": "北海道",
  "city": "釧路市",
  "address": "北海道釧路市阿寒町上阿寒23線36番地1",
  "lat": "43.144027",
  "lng": "144.14549",
  "pokemon": [
   "ジュナイパー"
  ],
  "zukan_ids": [
   "724"
  ],
  "image": "https://local.pokemon.jp/img/p/manhole/a3d69726d4c689718117f62c9aef41e7_l.png",
  "detail_url": "https://local.pokemon.jp/manhole/desc/215/"
 },
 {
  "manhole_no": "216",
  "pref_name": "北海道",
  "city": "帯広市",
  "address": "北海道帯広市西2条南12丁目6",
  "lat": "42.918205",
  "lng": "143.202563",
  "pokemon": [
   "ロコン",
   "ドロバンコ"
  ],
  "zukan_ids": [
   "037",
   "749"
  ],
  "image": "https://local.pokemon.jp/img/p/manhole/978d53fbb05f1fc405e8f52a26325b90_l.png",
  "detail_url": "https://local.pokemon.jp/manhole/desc/216/"
 },
 {
  "manhole_no": "217",
  "pref_name": "北海道",
  "city": "網走市",
  "address": "北海道網走市南3条東4丁目5-1",
  "lat": "44.021949",
  "lng": "144.274423",
  "pokemon": [
   "マニューラ"
  ],
  "zukan_ids": [
   "461"
  ],
  "image": "https://local.pokemon.jp/img/p/manhole/7f513d0f647dc5adfe2e0576aedaf871_l.png",
  "detail_url": "https://local.pokemon.jp/manhole/desc/217/"
 },
 {
  "manhole_no": "218",
  "pref_name": "北海道",
  "city": "赤井川村",
  "address": "北海道赤井川村字都190番地16",
  "lat": "43.05125",
  "lng": "140.844262",
  "pokemon": [
   "バニプッチ",
   "ミブリム"
  ],
  "zukan_ids": [
   "582",
   "856"
  ],
  "image": "https://local.pokemon.jp/img/p/manhole/f141860f843e06b962fcbd5c4d699d6e_l.png",
  "detail_url": "https://local.pokemon.jp/manhole/desc/218/"
 },
 {
  "manhole_no": "219",
  "pref_name": "北海道",
  "city": "東川町",
  "address": "北海道東川町北町1丁目1番2号",
  "lat": "43.698404",
  "lng": "142.507039",
  "pokemon": [
   "ディアルガ"
  ],
  "zukan_ids": [
   "483"
  ],
  "image": "https://local.pokemon.jp/img/p/manhole/97cab8cd9571ac26cba4a7a16bb12770_l.png",
  "detail_url": "https://local.pokemon.jp/manhole/desc/219/"
 },
 {
  "manhole_no": "220",
  "pref_name": "北海道",
  "city": "斜里町",
  "address": "北海道斜里町ウトロ西186番地8",
  "lat": "44.06884",
  "lng": "144.99062",
  "pokemon": [
   "ロコン",
   "パルキア"
  ],
  "zukan_ids": [
   "037",
   "484"
  ],
  "image": "https://local.pokemon.jp/img/p/manhole/1c18c9f749dced78800c3893890d0fbc_l.png",
  "detail_url": "https://local.pokemon.jp/manhole/desc/220/"
 },
 {
  "manhole_no": "221",
  "pref_name": "北海道",
  "city": "えりも町",
  "address": "北海道えりも町本町53-1",
  "lat": "42.01782",
  "lng": "143.14619",
  "pokemon": [],
  "zukan_ids": [],
  "image": "https://local.pokemon.jp/img/p/manhole/d6112e741a398a77436b6a4eca00b2cf_l.png",
  "detail_url": "https://local.pokemon.jp/manhole/desc/221/"
 },
 {
  "manhole_no": "222",
  "pref_name": "千葉県",
  "city": "香取市",
  "address": "千葉県香取市佐原イ109-14",
  "lat": "35.894417",
  "lng": "140.493902",
  "pokemon": [],
  "zukan_ids": [],
  "image": "https://local.pokemon.jp/img/p/manhole/c9284e72a57917ac1347408c2c48b8a7_l.png",
  "detail_url": "https://local.pokemon.jp/manhole/desc/222/"
 },
 {
  "manhole_no": "223",
  "pref_name": "千葉県",
  "city": "香取市",
  "address": "千葉県香取市佐原イ1722-1",
  "lat": "35.888376",
  "lng": "140.497568",
  "pokemon": [
   "ココガラ",
   "タイレーツ"
  ],
  "zukan_ids": [
   "821",
   "870"
  ],
  "image": "https://local.pokemon.jp/img/p/manhole/e20be7f7c65fda5d7808a88ca8ed6d78_l.png",
  "detail_url": "https://local.pokemon.jp/manhole/desc/223/"
 },
 {
  "manhole_no": "224",
  "pref_name": "千葉県",
  "city": "香取市",
  "address": "千葉県香取市佐原ハ4549-1",
  "lat": "35.928206",
  "lng": "140.523401",
  "pokemon": [
   "フラージェス",
   "ヤヤコマ"
  ],
  "zukan_ids": [
   "671",
   "661"
  ],
  "image": "https://local.pokemon.jp/img/p/manhole/0ca06ae099f30906d35f7061ac70f433_l.png",
  "detail_url": "https://local.pokemon.jp/manhole/desc/224/"
 },
 {
  "manhole_no": "225",
  "pref_name": "千葉県",
  "city": "香取市",
  "address": "千葉県香取市佐原イ4053-3",
  "lat": "35.896204",
  "lng": "140.506419",
  "pokemon": [
   "ハスボー",
   "タネボー",
   "ムクバード"
  ],
  "zukan_ids": [
   "270",
   "273",
   "397"
  ],
  "image": "https://local.pokemon.jp/img/p/manhole/23d6d594e7a3c463148f8a6122377134_l.png",
  "detail_url": "https://local.pokemon.jp/manhole/desc/225/"
 },
 {
  "manhole_no": "226",
  "pref_name": "栃木県",
  "city": "宇都宮市",
  "address": "栃木県宇都宮市元今泉5丁目10-1",
  "lat": "36.56077",
  "lng": "139.909489",
  "pokemon": [
   "エレブー",
   "ホシガリス"
  ],
  "zukan_ids": [
   "125",
   "819"
  ],
  "image": "https://local.pokemon.jp/img/p/manhole/52fdbecd02d60456608847e86f3e8964_l.png",
  "detail_url": "https://local.pokemon.jp/manhole/desc/226/"
 },
 {
  "manhole_no": "227",
  "pref_name": "栃木県",
  "city": "宇都宮市",
  "address": "栃木県宇都宮市新里町丙254番地",
  "lat": "36.63422",
  "lng": "139.83102",
  "pokemon": [
   "ラクライ",
   "イワパレス"
  ],
  "zukan_ids": [
   "309",
   "558"
  ],
  "image": "https://local.pokemon.jp/img/p/manhole/e3b4858f5d9d3e0dc78c355976453448_l.png",
  "detail_url": "https://local.pokemon.jp/manhole/desc/227/"
 },
 {
  "manhole_no": "228",
  "pref_name": "栃木県",
  "city": "宇都宮市",
  "address": "栃木県宇都宮市大曽2丁目地内",
  "lat": "36.57228",
  "lng": "139.88722",
  "pokemon": [
   "ボルトロス"
  ],
  "zukan_ids": [
   "642"
  ],
  "image": "https://local.pokemon.jp/img/p/manhole/614ba5f80e044574e4f5fa79677fa37f_l.png",
  "detail_url": "https://local.pokemon.jp/manhole/desc/228/"
 },
 {
  "manhole_no": "229",
  "pref_name": "沖縄県",
  "city": "浦添市",
  "address": "沖縄県浦添市勢理客4-14-1",
  "lat": "26.245559",
  "lng": "127.687899",
  "pokemon": [
   "ソルロック",
   "ポポッコ"
  ],
  "zukan_ids": [
   "338",
   "188"
  ],
  "image": "https://local.pokemon.jp/img/p/manhole/f845741c04f2845bd5ca99241c714706_l.png",
  "detail_url": "https://local.pokemon.jp/manhole/desc/229/"
 },
 {
  "manhole_no": "230",
  "pref_name": "沖縄県",
  "city": "名護市",
  "address": "沖縄県名護市城二丁目321番3",
  "lat": "26.587352",
  "lng": "127.985744",
  "pokemon": [
   "エモンガ",
   "ツツケラ"
  ],
  "zukan_ids": [
   "587",
   "731"
  ],
  "image": "https://local.pokemon.jp/img/p/manhole/73c010eaa7438086463ffc02641320d9_l.png",
  "detail_url": "https://local.pokemon.jp/manhole/desc/230/"
 },
 {
  "manhole_no": "231",
  "pref_name": "沖縄県",
  "city": "糸満市",
  "address": "沖縄県糸満市西崎町4丁目19-1",
  "lat": "26.13828",
  "lng": "127.661336",
  "pokemon": [
   "カメール",
   "スナバァ"
  ],
  "zukan_ids": [
   "008",
   "769"
  ],
  "image": "https://local.pokemon.jp/img/p/manhole/e3d0f526cfd0d3725b9814853efd7932_l.png",
  "detail_url": "https://local.pokemon.jp/manhole/desc/231/"
 },
 {
  "manhole_no": "232",
  "pref_name": "沖縄県",
  "city": "本部町",
  "address": "沖縄県本部町字石川　海洋博公園地内",
  "lat": "26.691694",
  "lng": "127.877972",
  "pokemon": [
   "ホエルオー"
  ],
  "zukan_ids": [
   "321"
  ],
  "image": "https://local.pokemon.jp/img/p/manhole/ace6dd945ee55438d6cc274d7d64dce2_l.png",
  "detail_url": "https://local.pokemon.jp/manhole/desc/232/"
 },
 {
  "manhole_no": "233",
  "pref_name": "沖縄県",
  "city": "豊見城市",
  "address": "沖縄県豊見城市字豊崎1-1162",
  "lat": "26.15755646",
  "lng": "127.656121",
  "pokemon": [
   "キバゴ",
   "ジャラコ"
  ],
  "zukan_ids": [
   "610",
   "782"
  ],
  "image": "https://local.pokemon.jp/img/p/manhole/07ed34f46b856337cea843d294287933_l.png",
  "detail_url": "https://local.pokemon.jp/manhole/desc/233/"
 },
 {
  "manhole_no": "234",
  "pref_name": "沖縄県",
  "city": "南城市",
  "address": "沖縄県南城市知念久手堅541",
  "lat": "26.169111",
  "lng": "127.827083",
  "pokemon": [
   "ハブネーク",
   "ザングース"
  ],
  "zukan_ids": [
   "336",
   "335"
  ],
  "image": "https://local.pokemon.jp/img/p/manhole/037ab104126f6843a4d1264f42926ab5_l.png",
  "detail_url": "https://local.pokemon.jp/manhole/desc/234/"
 },
 {
  "manhole_no": "235",
  "pref_name": "沖縄県",
  "city": "石垣市",
  "address": "沖縄県石垣市美崎町1",
  "lat": "24.337418",
  "lng": "124.156947",
  "pokemon": [
   "マンタイン",
   "テッポウオ"
  ],
  "zukan_ids": [
   "226",
   "223"
  ],
  "image": "https://local.pokemon.jp/img/p/manhole/070b79a26c3156a55e5f6b29b4780493_l.png",
  "detail_url": "https://local.pokemon.jp/manhole/desc/235/"
 },
 {
  "manhole_no": "236",
  "pref_name": "沖縄県",
  "city": "宮古島市",
  "address": "沖縄県宮古島市下地与那覇1199-1",
  "lat": "24.734962",
  "lng": "125.263088",
  "pokemon": [
   "カイオーガ"
  ],
  "zukan_ids": [
   "382"
  ],
  "image": "https://local.pokemon.jp/img/p/manhole/088f26f6fd18af3f64cc8d3e05af29ba_l.png",
  "detail_url": "https://local.pokemon.jp/manhole/desc/236/"
 },
 {
  "manhole_no": "237",
  "pref_name": "滋賀県",
  "city": "甲賀市",
  "address": "滋賀県甲賀市甲南町竜法師600",
  "lat": "34.919591",
  "lng": "136.170196",
  "pokemon": [
   "ゲッコウガ"
  ],
  "zukan_ids": [
   "658"
  ],
  "image": "https://local.pokemon.jp/img/p/manhole/675edfc1e37d6a294429a9e35ed48504_l.png",
  "detail_url": "https://local.pokemon.jp/manhole/desc/237/"
 },
 {
  "manhole_no": "238",
  "pref_name": "滋賀県",
  "city": "甲賀市",
  "address": "滋賀県甲賀市水口町北内貴230",
  "lat": "34.960528",
  "lng": "136.165168",
  "pokemon": [
   "ゲッコウガ"
  ],
  "zukan_ids": [
   "658"
  ],
  "image": "https://local.pokemon.jp/img/p/manhole/696baacc3630dbd8654850d1fb764e25_l.png",
  "detail_url": "https://local.pokemon.jp/manhole/desc/238/"
 },
 {
  "manhole_no": "239",
  "pref_name": "滋賀県",
  "city": "甲賀市",
  "address": "滋賀県甲賀市甲賀町大久保507番地2",
  "lat": "34.900437",
  "lng": "136.229399",
  "pokemon": [
   "ゲッコウガ",
   "ゲコガシラ"
  ],
  "zukan_ids": [
   "658",
   "657"
  ],
  "image": "https://local.pokemon.jp/img/p/manhole/723d14bb4afb1187b258976aa5094e0a_l.png",
  "detail_url": "https://local.pokemon.jp/manhole/desc/239/"
 },
 {
  "manhole_no": "240",
  "pref_name": "三重県",
  "city": "津市",
  "address": "三重県津市大門7-4",
  "lat": "34.718493",
  "lng": "136.5108",
  "pokemon": [
   "ミジュマル"
  ],
  "zukan_ids": [
   "501"
  ],
  "image": "https://local.pokemon.jp/img/p/manhole/ff1d441d552b5c89cd7254c986834349_l.png",
  "detail_url": "https://local.pokemon.jp/manhole/desc/240/"
 },
 {
  "manhole_no": "241",
  "pref_name": "三重県",
  "city": "四日市市",
  "address": "三重県四日市市日永東一丁目3-21",
  "lat": "34.952407",
  "lng": "136.611964",
  "pokemon": [
   "ミジュマル",
   "ダイケンキ"
  ],
  "zukan_ids": [
   "501",
   "503"
  ],
  "image": "https://local.pokemon.jp/img/p/manhole/38c81224354dc5eded2c52057638d817_l.png",
  "detail_url": "https://local.pokemon.jp/manhole/desc/241/"
 },
 {
  "manhole_no": "242",
  "pref_name": "三重県",
  "city": "伊勢市",
  "address": "三重県伊勢市本町20",
  "lat": "34.487787",
  "lng": "136.707097",
  "pokemon": [
   "ミジュマル",
   "リーシャン"
  ],
  "zukan_ids": [
   "501",
   "433"
  ],
  "image": "https://local.pokemon.jp/img/p/manhole/a61f60d4ef8ae9a401cc322fe9953951_l.png",
  "detail_url": "https://local.pokemon.jp/manhole/desc/242/"
 },
 {
  "manhole_no": "243",
  "pref_name": "三重県",
  "city": "鳥羽市",
  "address": "三重県鳥羽市鳥羽一丁目2383-42",
  "lat": "34.48691",
  "lng": "136.844825",
  "pokemon": [
   "ミジュマル",
   "ジュゴン"
  ],
  "zukan_ids": [
   "501",
   "087"
  ],
  "image": "https://local.pokemon.jp/img/p/manhole/c59edcc8c3f844e2d4b2d50b5b63f70e_l.png",
  "detail_url": "https://local.pokemon.jp/manhole/desc/243/"
 },
 {
  "manhole_no": "244",
  "pref_name": "三重県",
  "city": "熊野市",
  "address": "三重県熊野市木本町1835-7",
  "lat": "33.891753",
  "lng": "136.116125",
  "pokemon": [
   "ミジュマル",
   "ヌイコグマ"
  ],
  "zukan_ids": [
   "501",
   "759"
  ],
  "image": "https://local.pokemon.jp/img/p/manhole/642d73fc0560c98d9bb2123d61fe178a_l.png",
  "detail_url": "https://local.pokemon.jp/manhole/desc/244/"
 },
 {
  "manhole_no": "245",
  "pref_name": "三重県",
  "city": "志摩市",
  "address": "三重県志摩市大王町波切110-3",
  "lat": "34.275988",
  "lng": "136.898317",
  "pokemon": [
   "ミジュマル",
   "パールル"
  ],
  "zukan_ids": [
   "501",
   "366"
  ],
  "image": "https://local.pokemon.jp/img/p/manhole/2ff24b4155bf1e32a81d809c7e8fa0c4_l.png",
  "detail_url": "https://local.pokemon.jp/manhole/desc/245/"
 },
 {
  "manhole_no": "246",
  "pref_name": "三重県",
  "city": "伊賀市",
  "address": "三重県伊賀市上野丸之内504",
  "lat": "34.767543",
  "lng": "136.130081",
  "pokemon": [
   "ミジュマル",
   "アギルダー"
  ],
  "zukan_ids": [
   "501",
   "617"
  ],
  "image": "https://local.pokemon.jp/img/p/manhole/871d23d6e3da74231cd6d0c402b2ec3e_l.png",
  "detail_url": "https://local.pokemon.jp/manhole/desc/246/"
 },
 {
  "manhole_no": "247",
  "pref_name": "福島県",
  "city": "福島市",
  "address": "福島県福島市大笹生字月崎1-1",
  "lat": "37.80441",
  "lng": "140.41091",
  "pokemon": [
   "ラッキー",
   "モルペコ"
  ],
  "zukan_ids": [
   "113",
   "877"
  ],
  "image": "https://local.pokemon.jp/img/p/manhole/51ecc24c889978ded00d42af017a2958_l.png",
  "detail_url": "https://local.pokemon.jp/manhole/desc/247/"
 },
 {
  "manhole_no": "248",
  "pref_name": "福島県",
  "city": "会津若松市",
  "address": "福島県会津若松市門田町大字堤沢村上164 会津総合運動公園内",
  "lat": "37.461098",
  "lng": "139.927545",
  "pokemon": [
   "ラッキー",
   "エルレイド"
  ],
  "zukan_ids": [
   "113",
   "475"
  ],
  "image": "https://local.pokemon.jp/img/p/manhole/1adfd8a3e9e1b10828f4e0deefa93853_l.png",
  "detail_url": "https://local.pokemon.jp/manhole/desc/248/"
 },
 {
  "manhole_no": "249",
  "pref_name": "福島県",
  "city": "郡山市",
  "address": "福島県郡山市開成1丁目5",
  "lat": "37.396784",
  "lng": "140.35612",
  "pokemon": [
   "ラッキー",
   "プリン"
  ],
  "zukan_ids": [
   "113",
   "039"
  ],
  "image": "https://local.pokemon.jp/img/p/manhole/ca3e03abbe191764b6fde926eed1a5da_l.png",
  "detail_url": "https://local.pokemon.jp/manhole/desc/249/"
 },
 {
  "manhole_no": "250",
  "pref_name": "福島県",
  "city": "南会津町",
  "address": "福島県南会津町田島字宮本東33番地１",
  "lat": "37.2057204",
  "lng": "139.7778739",
  "pokemon": [
   "ラッキー",
   "ドッコラー"
  ],
  "zukan_ids": [
   "113",
   "532"
  ],
  "image": "https://local.pokemon.jp/img/p/manhole/50c29ca481ea4d2f804361c903447b30_l.png",
  "detail_url": "https://local.pokemon.jp/manhole/desc/250/"
 },
 {
  "manhole_no": "251",
  "pref_name": "福島県",
  "city": "柳津町",
  "address": "福島県柳津町大字柳津字下平乙161番地1",
  "lat": "37.528189",
  "lng": "139.722662",
  "pokemon": [
   "ラッキー",
   "ピンプク"
  ],
  "zukan_ids": [
   "113",
   "440"
  ],
  "image": "https://local.pokemon.jp/img/p/manhole/d2bf4080f4238cfa64011f8329c35fd1_l.png",
  "detail_url": "https://local.pokemon.jp/manhole/desc/251/"
 },
 {
  "manhole_no": "252",
  "pref_name": "福島県",
  "city": "昭和村",
  "address": "福島県昭和村大字佐倉字上ノ原1番地",
  "lat": "37.325691",
  "lng": "139.630641",
  "pokemon": [
   "ラッキー",
   "クルミル"
  ],
  "zukan_ids": [
   "113",
   "540"
  ],
  "image": "https://local.pokemon.jp/img/p/manhole/6b321ff06f50ac051b7f30760a91a093_l.png",
  "detail_url": "https://local.pokemon.jp/manhole/desc/252/"
 },
 {
  "manhole_no": "253",
  "pref_name": "福島県",
  "city": "双葉町",
  "address": "福島県双葉町大字中野字高田1番地1",
  "lat": "37.45745",
  "lng": "141.02692",
  "pokemon": [
   "ラッキー",
   "ヒマナッツ"
  ],
  "zukan_ids": [
   "113",
   "191"
  ],
  "image": "https://local.pokemon.jp/img/p/manhole/8d9e484d1f4e4ded757f196708543042_l.png",
  "detail_url": "https://local.pokemon.jp/manhole/desc/253/"
 },
 {
  "manhole_no": "254",
  "pref_name": "福島県",
  "city": "飯舘村",
  "address": "福島県飯舘村深谷字深谷前11-1",
  "lat": "37.698145",
  "lng": "140.735552",
  "pokemon": [
   "ラッキー",
   "フラエッテ"
  ],
  "zukan_ids": [
   "113",
   "670"
  ],
  "image": "https://local.pokemon.jp/img/p/manhole/3260540897d76440bd153d443780999d_l.png",
  "detail_url": "https://local.pokemon.jp/manhole/desc/254/"
 },
 {
  "manhole_no": "255",
  "pref_name": "佐賀県",
  "city": "佐賀市",
  "address": "佐賀県佐賀市松原1丁目1-1",
  "lat": "33.25075645",
  "lng": "130.2989299",
  "pokemon": [
   "ニャース"
  ],
  "zukan_ids": [
   "052"
  ],
  "image": "https://local.pokemon.jp/img/p/manhole/f7760dab549440c477f8b489e1add1ed_l.png",
  "detail_url": "https://local.pokemon.jp/manhole/desc/255/"
 },
 {
  "manhole_no": "256",
  "pref_name": "佐賀県",
  "city": "佐賀市",
  "address": "佐賀県佐賀市水ヶ江2丁目11-11",
  "lat": "33.24833583",
  "lng": "130.3089011",
  "pokemon": [],
  "zukan_ids": [],
  "image": "https://local.pokemon.jp/img/p/manhole/aa70252404971db18df4f2bc527a951c_l.png",
  "detail_url": "https://local.pokemon.jp/manhole/desc/256/"
 },
 {
  "manhole_no": "257",
  "pref_name": "佐賀県",
  "city": "佐賀市",
  "address": "佐賀県佐賀市城内1丁目1-59",
  "lat": "33.24900974",
  "lng": "130.3003128",
  "pokemon": [],
  "zukan_ids": [],
  "image": "https://local.pokemon.jp/img/p/manhole/64eddebc32fe29d163ab826aea4181c1_l.png",
  "detail_url": "https://local.pokemon.jp/manhole/desc/257/"
 },
 {
  "manhole_no": "258",
  "pref_name": "岩手県",
  "city": "花巻市",
  "address": "岩手県花巻市大通り1丁目2−21",
  "lat": "39.392034",
  "lng": "141.11169",
  "pokemon": [
   "イシツブテ",
   "コスモッグ",
   "レックウザ"
  ],
  "zukan_ids": [
   "074",
   "789",
   "384"
  ],
  "image": "https://local.pokemon.jp/img/p/manhole/17c410916387ddddbd7f807b04947683_l.png",
  "detail_url": "https://local.pokemon.jp/manhole/desc/258/"
 },
 {
  "manhole_no": "259",
  "pref_name": "岩手県",
  "city": "遠野市",
  "address": "岩手県遠野市中央通り4−6",
  "lat": "39.330638",
  "lng": "141.528872",
  "pokemon": [
   "イシツブテ",
   "ハスブレロ",
   "ルンパッパ"
  ],
  "zukan_ids": [
   "074",
   "271",
   "272"
  ],
  "image": "https://local.pokemon.jp/img/p/manhole/863f98fb33b3066069009fc1ca95df3a_l.png",
  "detail_url": "https://local.pokemon.jp/manhole/desc/259/"
 },
 {
  "manhole_no": "260",
  "pref_name": "岩手県",
  "city": "一関市",
  "address": "岩手県一関市東山町長坂字町467-１",
  "lat": "38.98958",
  "lng": "141.25527",
  "pokemon": [
   "イシツブテ",
   "ダンゴロ",
   "ドサイドン"
  ],
  "zukan_ids": [
   "074",
   "524",
   "464"
  ],
  "image": "https://local.pokemon.jp/img/p/manhole/453d04268259621cd2081a81428b81d8_l.png",
  "detail_url": "https://local.pokemon.jp/manhole/desc/260/"
 },
 {
  "manhole_no": "261",
  "pref_name": "岩手県",
  "city": "二戸市",
  "address": "岩手県二戸市金田一字湯田41",
  "lat": "40.320335",
  "lng": "141.318849",
  "pokemon": [
   "イシツブテ",
   "ユキワラシ"
  ],
  "zukan_ids": [
   "074",
   "361"
  ],
  "image": "https://local.pokemon.jp/img/p/manhole/ea457a9ac12cd61461471430fa04872e_l.png",
  "detail_url": "https://local.pokemon.jp/manhole/desc/261/"
 },
 {
  "manhole_no": "262",
  "pref_name": "岩手県",
  "city": "八幡平市",
  "address": "岩手県八幡平市大更第2地割154−36",
  "lat": "39.87958",
  "lng": "141.099388",
  "pokemon": [
   "イシツブテ",
   "アマルス"
  ],
  "zukan_ids": [
   "074",
   "698"
  ],
  "image": "https://local.pokemon.jp/img/p/manhole/ceed9f9a751f47fe1f935b99da1e094e_l.png",
  "detail_url": "https://local.pokemon.jp/manhole/desc/262/"
 },
 {
  "manhole_no": "263",
  "pref_name": "岩手県",
  "city": "滝沢市",
  "address": "岩手県滝沢市下鵜飼1−15",
  "lat": "39.734",
  "lng": "141.07829",
  "pokemon": [
   "イシツブテ",
   "ドロバンコ",
   "ルチャブル"
  ],
  "zukan_ids": [
   "074",
   "749",
   "701"
  ],
  "image": "https://local.pokemon.jp/img/p/manhole/2490baa3ed8a260be964d24128fd0154_l.png",
  "detail_url": "https://local.pokemon.jp/manhole/desc/263/"
 },
 {
  "manhole_no": "264",
  "pref_name": "岩手県",
  "city": "岩手町",
  "address": "岩手県岩手町五日市第10地割121−20",
  "lat": "39.968579",
  "lng": "141.213736",
  "pokemon": [
   "イシツブテ",
   "メタモン"
  ],
  "zukan_ids": [
   "074",
   "132"
  ],
  "image": "https://local.pokemon.jp/img/p/manhole/ae475fe4a3bc02e9f2c71b5b530bdec9_l.png",
  "detail_url": "https://local.pokemon.jp/manhole/desc/264/"
 },
 {
  "manhole_no": "265",
  "pref_name": "岩手県",
  "city": "紫波町",
  "address": "岩手県紫波町紫波中央駅前1丁目",
  "lat": "39.554641",
  "lng": "141.158293",
  "pokemon": [
   "イシツブテ",
   "アママイコ"
  ],
  "zukan_ids": [
   "074",
   "762"
  ],
  "image": "https://local.pokemon.jp/img/p/manhole/a6b1f66c93b0ccde014798e169a62ab7_l.png",
  "detail_url": "https://local.pokemon.jp/manhole/desc/265/"
 },
 {
  "manhole_no": "266",
  "pref_name": "岩手県",
  "city": "西和賀町",
  "address": "岩手県西和賀町川尻40地割",
  "lat": "39.31446",
  "lng": "140.77649",
  "pokemon": [
   "イシツブテ",
   "ミノムッチ"
  ],
  "zukan_ids": [
   "074",
   "412"
  ],
  "image": "https://local.pokemon.jp/img/p/manhole/ad2314607356eb76b53f042d0d0c789e_l.png",
  "detail_url": "https://local.pokemon.jp/manhole/desc/266/"
 },
 {
  "manhole_no": "267",
  "pref_name": "岩手県",
  "city": "平泉町",
  "address": "岩手県平泉町平泉大沢",
  "lat": "38.986635",
  "lng": "141.108167",
  "pokemon": [
   "クレセリア",
   "ルナトーン"
  ],
  "zukan_ids": [
   "488",
   "337"
  ],
  "image": "https://local.pokemon.jp/img/p/manhole/8836400faac2d8e8a399cbb3d4486759_l.png",
  "detail_url": "https://local.pokemon.jp/manhole/desc/267/"
 },
 {
  "manhole_no": "268",
  "pref_name": "岩手県",
  "city": "軽米町",
  "address": "岩手県軽米町晴山第22地割38",
  "lat": "40.322649",
  "lng": "141.381779",
  "pokemon": [
   "イシツブテ",
   "ナゲツケサル",
   "イワンコ"
  ],
  "zukan_ids": [
   "074",
   "766",
   "744"
  ],
  "image": "https://local.pokemon.jp/img/p/manhole/c1d89eb9977a98ddc9928fcc01679954_l.png",
  "detail_url": "https://local.pokemon.jp/manhole/desc/268/"
 },
 {
  "manhole_no": "269",
  "pref_name": "岩手県",
  "city": "九戸村",
  "address": "岩手県九戸村山屋第2地割28−1",
  "lat": "40.24854",
  "lng": "141.416759",
  "pokemon": [
   "イシツブテ",
   "ホーホー",
   "フクスロー"
  ],
  "zukan_ids": [
   "074",
   "163",
   "723"
  ],
  "image": "https://local.pokemon.jp/img/p/manhole/4cabd14c034857349d2f7dbfe2c962c8_l.png",
  "detail_url": "https://local.pokemon.jp/manhole/desc/269/"
 },
 {
  "manhole_no": "270",
  "pref_name": "岩手県",
  "city": "一戸町",
  "address": "岩手県一戸町一戸砂森",
  "lat": "40.20885",
  "lng": "141.30468",
  "pokemon": [
   "イシツブテ",
   "ヤジロン"
  ],
  "zukan_ids": [
   "074",
   "343"
  ],
  "image": "https://local.pokemon.jp/img/p/manhole/f13194f5bef52f5ccefbec9e2a63045d_l.png",
  "detail_url": "https://local.pokemon.jp/manhole/desc/270/"
 },
 {
  "manhole_no": "271",
  "pref_name": "愛知県",
  "city": "豊橋市",
  "address": "愛知県豊橋市今橋町3",
  "lat": "34.768863",
  "lng": "137.393843",
  "pokemon": [
   "バクフーン"
  ],
  "zukan_ids": [
   "157"
  ],
  "image": "https://local.pokemon.jp/img/p/manhole/2b38fff3956d1bef47f96d05ce465f6f_l.png",
  "detail_url": "https://local.pokemon.jp/manhole/desc/271/"
 },