[{"no":1,"name":"ポケモンセンターサッポロ","pref":"北海道","city":"札幌市","addr":"北海道札幌市中央区北5条西4-7大丸札幌店 8F","lat":43.06746909999999,"lng":141.3492665,"url":"https://www.pokemon.co.jp/shop/pokecen/sapporo/"},{"no":2,"name":"ポケモンセンタートウホク","pref":"宮城県","city":"仙台市","addr":"宮城県仙台市青葉区中央1-2-3仙台PARCO1 3F","lat":38.2621602,"lng":140.8817018,"url":"https://www.pokemon.co.jp/shop/pokecen/tohoku/"},{"no":3,"name":"ポケモンセンタートウキョーDX","pref":"東京都","city":"中央区","addr":"東京都中央区日本橋2-11-2日本橋髙島屋S.C.東館 5F","lat":35.6802902,"lng":139.7742695,"url":"https://www.pokemon.co.jp/shop/pokecen/tokyodx/"},{"no":4,"name":"ポケモンセンターメガトウキョー","pref":"東京都","city":"豊島区","addr":"東京都豊島区東池袋3-1-2サンシャインシティ 専門店街アルパ 2F","lat":35.7289056,"lng":139.7193245,"url":"https://www.pokemon.co.jp/shop/pokecen/megatokyo/"},{"no":5,"name":"ポケモンセンターシブヤ","pref":"東京都","city":"渋谷区","addr":"東京都渋谷区宇田川町15-1渋谷PARCO 6F","lat":35.66195569999999,"lng":139.6984408,"url":"https://www.pokemon.co.jp/shop/pokecen/shibuya/"},{"no":6,"name":"ポケモンセンタースカイツリータウン","pref":"東京都","city":"墨田区","addr":"東京都墨田区押上1-1-2東京スカイツリータウン・ソラマチ イーストヤード 4F","lat":35.710344799999994,"lng":139.8126119,"url":"https://www.pokemon.co.jp/shop/pokecen/skytreetown/"},{"no":7,"name":"ポケモンセンタートウキョーベイ","pref":"千葉県","city":"船橋市","addr":"千葉県船橋市浜町2-1-1三井ショッピングパーク ららぽーとTOKYO-BAY 西館 2F","lat":35.6866032,"lng":139.9890362,"url":"https://www.pokemon.co.jp/shop/pokecen/tokyobay/"},{"no":8,"name":"ポケモンセンターヨコハマ","pref":"神奈川県","city":"横浜市","addr":"神奈川県横浜市西区高島2-19-12横浜スカイビル 8F","lat":35.4645717,"lng":139.6244898,"url":"https://www.pokemon.co.jp/shop/pokecen/yokohama/"},{"no":9,"name":"ポケモンセンターナゴヤ","pref":"愛知県","city":"名古屋市","addr":"愛知県名古屋市中区栄3-29-1名古屋PARCO 東館 2F","lat":35.1636262,"lng":136.90803,"url":"https://www.pokemon.co.jp/shop/pokecen/nagoya/"},{"no":10,"name":"ポケモンセンターカナザワ","pref":"石川県","city":"金沢市","addr":"石川県金沢市堀川新町3-1金沢フォーラス 5F","lat":36.5791483,"lng":136.64975429999998,"url":"https://www.pokemon.co.jp/shop/pokecen/kanazawa/"},{"no":11,"name":"ポケモンセンターキョウト","pref":"京都","city":"府京都市","addr":"京都府京都市下京区四条通室町東入函谷鉾町78京都経済センター SUINA室町 2F","lat":35.003416699999995,"lng":135.75838389999998,"url":"https://www.pokemon.co.jp/shop/pokecen/kyoto/"},{"no":12,"name":"ポケモンセンターオーサカ","pref":"大阪府","city":"大阪市","addr":"大阪府大阪市北区梅田3-1-1ルクア サウス 13F","lat":34.70185250000001,"lng":135.49655909999998,"url":"https://www.pokemon.co.jp/shop/pokecen/osaka/"},{"no":13,"name":"ポケモンセンターオーサカDX","pref":"大阪府","city":"大阪市","addr":"大阪府大阪市中央区心斎橋筋1-7-1大丸心斎橋店 本館 9F","lat":34.6731719,"lng":135.5007545,"url":"https://www.pokemon.co.jp/shop/pokecen/osakadx/"},{"no":14,"name":"ポケモンセンターヒロシマ","pref":"広島県","city":"広島市","addr":"広島県広島市南区松原町1-2ekie 2F","lat":34.3986243,"lng":132.4759743,"url":"https://www.pokemon.co.jp/shop/pokecen/hiroshima/"},{"no":15,"name":"ポケモンセンターカガワ","pref":"香川県","city":"高松市","addr":"香川県高松市丸亀町8-23丸亀町グリーン 東館 1F","lat":34.3422817,"lng":134.05006079999998,"url":"https://www.pokemon.co.jp/shop/pokecen/kagawa/"},{"no":16,"name":"ポケモンセンターフクオカ","pref":"福岡県","city":"福岡市","addr":"福岡県福岡市博多区博多駅中央街9-1博多マルイ 2F","lat":33.5890033,"lng":130.4192564,"url":"https://www.pokemon.co.jp/shop/pokecen/fukuoka/"},{"no":17,"name":"ポケモンセンターオキナワ","pref":"沖縄県","city":"中頭郡北中城村","addr":"沖縄県中頭郡北中城村字ライカム1イオンモール沖縄ライカム 1F","lat":26.314085199999997,"lng":127.7962995,"url":"https://www.pokemon.co.jp/shop/pokecen/okinawa/"},{"no":18,"name":"Pokémon GO Lab.","pref":"東京都","city":"豊島区","addr":"東京都豊島区東池袋3-1 サンシャインシティ","lat":35.729408,"lng":139.719022,"url":"https://www.pokemongo.jp/"}]